city,lat,lng,country,iso2,admin,capital,population,population_proper
Sydney,-33.861481,151.205475,Australia,AU,New South Wales,admin,4630000,3641422
South Melbourne,-37.833333,144.966667,Australia,AU,Victoria,,4170000,93625
Brisbane,-27.47101,153.024292,Australia,AU,Queensland,admin,1860000,926353
Perth,-31.95224,115.861397,Australia,AU,Western Australia,admin,1532000,880216
Adelaide,-34.928661,138.598633,Australia,AU,South Australia,admin,1145000,836354
Newcastle,-32.927792,151.784485,Australia,AU,New South Wales,,1134616,497955
Gold Coast,-28.00029,153.430878,Australia,AU,Queensland,,527660,332249
Cranbourne,-38.1,145.283333,Australia,AU,Victoria,,460491,39419
Canberra,-35.27603,149.13435,Australia,AU,Australian Capital Territory,primary,327700,234032
Wollongong,-34.424,150.893448,Australia,AU,New South Wales,,260914,141725
Geelong,-38.153461,144.358093,Australia,AU,Victoria,,160991,137681
Cairns,-16.92304,145.766251,Australia,AU,Queensland,,154225,109989
Townsville,-19.26639,146.805695,Australia,AU,Queensland,,138954,119470
Albury,-36.074823,146.924006,Australia,AU,New South Wales,,104258,32810
Nowra,-34.88422,150.600357,Australia,AU,New South Wales,,94781,27292
Darwin,-12.45722,130.836639,Australia,AU,Northern Territory,admin,93080,72866
Toowoomba,-27.56056,151.953857,Australia,AU,Queensland,,92800,80622
Ballarat,-37.56266,143.862579,Australia,AU,Victoria,,85109,61699
Bendigo,-36.758179,144.280243,Australia,AU,Victoria,,81657,55923
Hobart,-42.883209,147.331665,Australia,AU,Tasmania,admin,80870,47700
North Mackay,-21.116667,149.183333,Australia,AU,Queensland,,75922,56185
Mandurah,-32.526901,115.721703,Australia,AU,Western Australia,,73356,32376
Launceston,-41.438759,147.134674,Australia,AU,Tasmania,,72458,57755
Rockhampton,-23.38032,150.505951,Australia,AU,Queensland,,65850,52199
Coffs Harbour,-30.296261,153.11351,Australia,AU,New South Wales,,62978,34944
Wagga Wagga,-35.125771,147.353745,Australia,AU,New South Wales,,55381,35717
Bundaberg,-24.866211,152.3479,Australia,AU,Queensland,,52472,39652
Port Macquarie,-31.43084,152.908936,Australia,AU,New South Wales,,48547,35593
Mildura,-34.185509,142.162506,Australia,AU,Victoria,,47867,18782
Taree,-31.91099,152.453873,Australia,AU,New South Wales,,44182,16081
Orange,-33.283089,149.100006,Australia,AU,New South Wales,,39329,34087
Caloundra,-26.797091,153.137711,Australia,AU,Queensland,,38706,28768
West Tamworth,-31.10625,150.909356,Australia,AU,New South Wales,,38551,31609
Kalgoorlie,-30.743762,121.465902,Australia,AU,Western Australia,,36852,27264
Shepparton,-36.38047,145.398666,Australia,AU,Victoria,,33550,33311
Mount Isa,-20.725229,139.497269,Australia,AU,Queensland,,33200,21992
Tweed Heads,-28.17561,153.542007,Australia,AU,New South Wales,,33065,33065
Queanbeyan,-35.354931,149.231995,Australia,AU,New South Wales,,32602,32214
Melton,-37.683392,144.585434,Australia,AU,Victoria,,32368,27132
Dubbo,-32.24295,148.604843,Australia,AU,New South Wales,,31574,29361
Caboolture,-27.08465,152.951096,Australia,AU,Queensland,,31513,21478
North Lismore,-28.8,153.283333,Australia,AU,New South Wales,,31430,24701
Gladstone,-23.84761,151.256348,Australia,AU,Queensland,,30489,27621
Warrnambool,-38.38176,142.487991,Australia,AU,Victoria,,29928,29836
Sunbury,-37.577419,144.726074,Australia,AU,Victoria,,29925,7430
Alice Springs,-23.697479,133.883621,Australia,AU,Northern Territory,,27710,26188
Geraldton,-28.778971,114.614594,Australia,AU,Western Australia,,27258,26872
Bunbury,-33.32711,115.641373,Australia,AU,Western Australia,,26998,26369
Albany,-35.003101,117.865952,Australia,AU,Western Australia,,26445,23913
Hervey Bay,-25.29052,152.873764,Australia,AU,Queensland,,25114,25114
Mount Gambier,-37.831799,140.77919,Australia,AU,South Australia,,23209,20428
Armidale,-30.50828,151.671234,Australia,AU,New South Wales,,22673,20914
Whyalla,-33.032681,137.564835,Australia,AU,South Australia,,22559,19645
Sale,-38.11095,147.068024,Australia,AU,Victoria,,22486,12917
Katoomba,-33.713032,150.311737,Australia,AU,New South Wales,,22076,18593
Goulburn,-34.751549,149.720856,Australia,AU,New South Wales,,20940,11948
Maryborough,-25.54073,152.704926,Australia,AU,Queensland,,20678,17163
Kwinana,-32.230129,115.781281,Australia,AU,Western Australia,,20086,17549
Burnie,-41.05584,145.903748,Australia,AU,Tasmania,,19972,17009
Echuca,-36.140572,144.751846,Australia,AU,Victoria,,19457,7463
Devonport,-41.176949,146.351517,Australia,AU,Tasmania,,19317,16548
Roebourne,-20.772289,117.146477,Australia,AU,Western Australia,,19260,3303
East Maitland,-32.75,151.583333,Australia,AU,New South Wales,,18625,1428
Traralgon,-38.195278,146.541504,Australia,AU,Victoria,,18226,15739
Murray Bridge,-35.119862,139.273453,Australia,AU,South Australia,,18194,10177
Forster,-32.181358,152.517151,Australia,AU,New South Wales,,17591,8960
Broken Hill,-31.9652,141.451202,Australia,AU,New South Wales,,17395,17070
Karratha,-20.738951,116.842949,Australia,AU,Western Australia,,16796,16476
Gawler,-34.602509,138.749023,Australia,AU,South Australia,,16362,14723
Griffith,-34.288528,146.050934,Australia,AU,New South Wales,,15455,7874
Kingston Beach,-42.983333,147.316667,Australia,AU,Tasmania,,14371,10933
Port Hedland,-20.312149,118.610588,Australia,AU,Western Australia,,14288,3706
Ballina,-28.86414,153.565414,Australia,AU,New South Wales,,14242,13753
Wangaratta,-36.358459,146.320557,Australia,AU,Victoria,,14022,8717
Port Augusta West,-32.483333,137.75,Australia,AU,South Australia,,13897,8476
Richmond North,-33.581169,150.719421,Australia,AU,New South Wales,,13880,5560
Singleton,-32.567421,151.166031,Australia,AU,New South Wales,,13813,2868
Bongaree,-27.08367,153.159424,Australia,AU,Queensland,,13649,7006
Port Lincoln,-34.72625,135.87442,Australia,AU,South Australia,,13630,11247
Broome,-17.955379,122.23922,Australia,AU,Western Australia,,13218,10563
Horsham,-36.711311,142.199814,Australia,AU,Victoria,,12830,11141
Port Pirie,-33.191761,138.017456,Australia,AU,South Australia,,12506,12328
Warwick,-28.219009,152.034378,Australia,AU,Queensland,,12347,7701
Kempsey,-31.078979,152.830933,Australia,AU,New South Wales,,11840,9522
Portland,-38.352612,141.605743,Australia,AU,Victoria,,11808,8841
Gympie South,-26.211519,152.64769,Australia,AU,Queensland,,11649,11027
Muswellbrook,-32.261181,150.890091,Australia,AU,New South Wales,,11630,4712
Parkes,-33.137199,148.175903,Australia,AU,New South Wales,,11137,3183
Lithgow,-33.482471,150.136307,Australia,AU,New South Wales,,11128,9548
Bairnsdale East,-37.830789,147.651752,Australia,AU,Victoria,,11005,7849
Bowen,-20.01367,148.247543,Australia,AU,Queensland,,10983,10983
Yeppoon,-23.126829,150.744064,Australia,AU,Queensland,,10769,2132
Batemans Bay,-35.706581,150.175415,Australia,AU,New South Wales,,10557,651
Kiama,-34.668282,150.852188,Australia,AU,New South Wales,,10379,10379
Busselton,-33.652489,115.345497,Australia,AU,Western Australia,,10214,8976
Innisfail,-17.522091,146.031021,Australia,AU,Queensland,,10143,9271
Katherine,-14.46517,132.263474,Australia,AU,Northern Territory,,10141,6202
Moranbah,-21.99828,148.034836,Australia,AU,Queensland,,10000,4714
South Grafton,-29.7,152.95,Australia,AU,New South Wales,,9955,5788
Dalby,-27.18169,151.262054,Australia,AU,Queensland,,9847,9790
Charters Towers,-20.07671,146.263535,Australia,AU,Queensland,,9573,7166
Emerald,-23.522961,148.157837,Australia,AU,Queensland,,9398,5580
Swan Hill,-35.3383,143.552652,Australia,AU,Victoria,,9276,8870
Ulladulla,-35.359058,150.472473,Australia,AU,New South Wales,,9250,4372
Colac,-38.339001,143.584885,Australia,AU,Victoria,,9089,5811
Ayr,-19.573931,147.406662,Australia,AU,Queensland,,9078,5254
Hamilton,-37.74334,142.028915,Australia,AU,Victoria,,8869,5116
Kingaroy,-26.53994,151.837296,Australia,AU,Queensland,,8573,6416
Inverell,-29.774031,151.111664,Australia,AU,New South Wales,,8561,5130
Moree,-29.46278,149.841568,Australia,AU,New South Wales,,8203,7921
Deniliquin,-35.532447,144.953643,Australia,AU,New South Wales,,8024,4015
Esperance,-33.86013,121.882591,Australia,AU,Western Australia,,7888,6522
Victor Harbor,-35.550419,138.621536,Australia,AU,South Australia,,7760,7218
Young,-34.313499,148.301071,Australia,AU,New South Wales,,7501,5343
Carnarvon,-24.88073,113.659401,Australia,AU,Western Australia,,7392,7392
Leeton,-34.551048,146.404831,Australia,AU,New South Wales,,7299,5255
Gunnedah,-30.98065,150.258377,Australia,AU,New South Wales,,7148,5260
Narrabri West,-30.333333,149.75,Australia,AU,New South Wales,,7082,5129
Maryborough,-37.04562,143.739227,Australia,AU,Victoria,,7046,4631
Stawell,-37.05632,142.780884,Australia,AU,Victoria,,6991,2201
Atherton,-17.268641,145.47522,Australia,AU,Queensland,,6959,5306
Cowra,-33.835541,148.696625,Australia,AU,New South Wales,,6795,4664
Byron Bay,-28.64201,153.611938,Australia,AU,New South Wales,,6764,3725
Tumut,-35.300159,148.225052,Australia,AU,New South Wales,,6526,3220
Cooma,-36.234692,149.125977,Australia,AU,New South Wales,,6520,4803
Pambula,-36.930099,149.874496,Australia,AU,New South Wales,,6367,848
Biloela,-24.395895,150.515043,Australia,AU,Queensland,,6309,2424
South Ingham,-18.65,146.166667,Australia,AU,Queensland,,6127,5866
Bathurst,-33.417358,149.581284,Australia,AU,New South Wales,,6111,6111
Ararat,-37.285419,142.927277,Australia,AU,Victoria,,6110,4818
Wonthaggi,-38.605862,145.593552,Australia,AU,Victoria,,5985,2958
Northam,-31.649321,116.674232,Australia,AU,Western Australia,,5855,4805
Kununurra,-15.77813,128.744141,Australia,AU,Western Australia,,5679,4780
Roma,-26.56741,148.787506,Australia,AU,Queensland,,5496,3625
Mudgee,-32.59948,149.587067,Australia,AU,New South Wales,,5391,5391
Newman,-23.394506,119.729637,Australia,AU,Western Australia,,5138,218
McMinns Lagoon,-12.55397,131.111649,Australia,AU,Northern Territory,,5025,5025
Forbes,-33.384361,148.007599,Australia,AU,New South Wales,,4838,3315
Berri,-34.281071,140.599579,Australia,AU,South Australia,,4716,4330
Cobram,-35.920689,145.640656,Australia,AU,Victoria,,4659,4659
Scone,-32.05014,150.868927,Australia,AU,New South Wales,,4624,4624
Goondiwindi,-28.5464,150.307297,Australia,AU,Queensland,,4251,4251
Manjimup,-34.241219,116.145638,Australia,AU,Western Australia,,4240,3793
Narrogin,-32.932819,117.177628,Australia,AU,Western Australia,,4238,3752
Smithton,-40.845868,145.124975,Australia,AU,Tasmania,,4202,2500
Proserpine,-20.4011,148.5802,Australia,AU,Queensland,,3976,3976
Katanning,-33.68787,117.558403,Australia,AU,Western Australia,,3934,2346
Seymour,-37.02655,145.139236,Australia,AU,Victoria,,3693,3693
Clare,-33.833248,138.610641,Australia,AU,South Australia,,3061,2397
Central Coast,-33.42979,151.371445,Australia,AU,New South Wales,,3026,3026
Port Douglas,-16.483829,145.467255,Australia,AU,Queensland,,3000,1009
Longreach,-23.44212,144.249207,Australia,AU,Queensland,,2894,2894
Weipa,-12.62346,141.87883,Australia,AU,Queensland,,2830,2830
Wallaroo,-33.938808,137.633652,Australia,AU,South Australia,,2779,2105
Tom Price,-22.69408,117.787651,Australia,AU,Western Australia,,2723,921
Merredin,-31.48094,118.274483,Australia,AU,Western Australia,,2668,1440
Bordertown,-36.307678,140.771667,Australia,AU,South Australia,,2583,1369
Bourke,-30.09008,145.945435,Australia,AU,New South Wales,,2475,2475
North Scottsdale,-41.121545,147.559519,Australia,AU,Tasmania,,2468,899
Queenstown,-42.080502,145.556458,Australia,AU,Tasmania,,2352,964
Charleville,-26.40542,146.242737,Australia,AU,Queensland,,1900,1900
Yamba,-29.43545,153.360306,Australia,AU,New South Wales,,1806,1806
Tumby Bay,-34.375061,136.103333,Australia,AU,South Australia,,1791,1791
Mount Barker,-34.63084,117.666061,Australia,AU,Western Australia,,1781,1762
Peterborough,-32.97205,138.840729,Australia,AU,South Australia,,1689,1013
Wagin,-33.308941,117.343277,Australia,AU,Western Australia,,1598,477
Ceduna,-32.121559,133.678665,Australia,AU,South Australia,,1586,919
Kalbarri,-27.710501,114.165047,Australia,AU,Western Australia,,1537,1537
Penola,-37.375198,140.836777,Australia,AU,South Australia,,1514,1512
Meningie,-35.688412,139.338562,Australia,AU,South Australia,,1501,199
Gingin,-31.347219,115.90432,Australia,AU,Western Australia,,1446,1446
Ouyen,-35.070869,142.320343,Australia,AU,Victoria,,1400,424
Port Denison,-29.283333,114.916667,Australia,AU,Western Australia,,1213,1213
Halls Creek,-18.22485,127.666473,Australia,AU,Western Australia,,1209,1209
Cloncurry,-20.70718,140.513031,Australia,AU,Queensland,,1202,1202
Oatlands,-42.30302,147.367233,Australia,AU,Tasmania,,1157,1157
Winton,-22.381849,143.042404,Australia,AU,Queensland,,1157,1157
Ravensthorpe,-33.583031,120.046883,Australia,AU,Western Australia,,1101,177
Exmouth,-21.940201,114.125008,Australia,AU,Western Australia,,1085,1085
Barcaldine,-23.55353,145.285416,Australia,AU,Queensland,,1068,1068
Streaky Bay,-32.79924,134.211594,Australia,AU,South Australia,,1060,169
Norseman,-32.197689,121.778732,Australia,AU,Western Australia,,1004,1004
Yulara,-25.245291,130.980545,Australia,AU,Northern Territory,,930,930
Georgetown,-18.29199,143.545837,Australia,AU,Queensland,,818,818
Pannawonica,-21.639179,116.322227,Australia,AU,Western Australia,,686,686
Pine Creek,-13.82077,131.832947,Australia,AU,Northern Territory,,665,345
Meekatharra,-26.59524,118.493927,Australia,AU,Western Australia,,654,654
Kimba,-33.14164,136.418747,Australia,AU,South Australia,,636,636
Boulia,-22.91139,139.909348,Australia,AU,Queensland,,600,205
Onslow,-21.636869,115.111687,Australia,AU,Western Australia,,573,573
Quilpie,-26.61348,144.269485,Australia,AU,Queensland,,560,560
Cowell,-33.68227,136.921173,Australia,AU,South Australia,,537,537
Andamooka,-30.44972,137.163651,Australia,AU,South Australia,,528,528
Eidsvold,-25.370609,151.122589,Australia,AU,Queensland,,459,459
Woomera,-31.19981,136.832581,Australia,AU,South Australia,,450,450
Wilcannia,-31.56031,143.377045,Australia,AU,New South Wales,,442,442
Mount Magnet,-28.064791,117.849037,Australia,AU,Western Australia,,424,424
Hughenden,-20.84399,144.200348,Australia,AU,Queensland,,421,421
Laverton,-28.625311,122.399399,Australia,AU,Western Australia,,316,316
Richmond,-20.73243,143.143555,Australia,AU,Queensland,,296,296
Birdsville,-25.898001,139.351726,Australia,AU,Queensland,,283,283
Ivanhoe,-32.900379,144.301498,Australia,AU,New South Wales,,265,265
Morawa,-29.21343,116.007912,Australia,AU,Western Australia,,259,259
Theodore,-24.94743,150.075287,Australia,AU,Queensland,,246,246
Adelaide River,-13.23943,131.10733,Australia,AU,Northern Territory,,237,237
Leonora,-28.88509,121.330742,Australia,AU,Western Australia,,227,227
Kingston South East,-36.83073,139.852203,Australia,AU,South Australia,,206,206
Thargomindah,-27.99498,143.823914,Australia,AU,Queensland,,203,203
Burketown,-17.741051,139.547745,Australia,AU,Queensland,,200,173
Three Springs,-29.533609,115.760529,Australia,AU,Western Australia,,190,190
Southern Cross,-31.22677,119.323761,Australia,AU,Western Australia,,187,187
Camooweal,-19.921539,138.120132,Australia,AU,Queensland,,187,187
Bicheno,-41.884764,148.301446,Australia,AU,Tasmania,,177,177
Karumba,-17.488819,140.838196,Australia,AU,Queensland,,173,173
Windorah,-25.42224,142.656597,Australia,AU,Queensland,,158,158
Bedourie,-24.3637,139.465277,Australia,AU,Queensland,,142,142
Kingoonya,-30.9,135.3,Australia,AU,South Australia,,50,50
Melbourne,-37.813938,144.963425,Australia,AU,Victoria,admin,,
Currie,-39.929759,143.853847,Australia,AU,Tasmania,minor,,
North Melbourne,-37.813938,144.963425,Australia,AU,Victoria,admin,,
East Melbourne,-37.813938,144.963425,Australia,AU,Victoria,admin,,
West Melbourne,-37.813938,144.963425,Australia,AU,Victoria,admin,,
Albert Park,-37.813938,144.963425,Australia,AU,Victoria,admin,,
Saint Kilda,-37.813938,144.963425,Australia,AU,Victoria,admin,,
OTTOWAY,-37.813938,144.963425,Australia,AU,Victoria,admin,,
PENNINGTON,-37.813938,144.963425,Australia,AU,Victoria,admin,,
ROSEWATER,-37.813938,144.963425,Australia,AU,Victoria,admin,,
WINGFIELD,-37.813938,144.963425,Australia,AU,Victoria,admin,,
ALBERT PARK,-37.813938,144.963425,Australia,AU,Victoria,admin,,
ALBERTON,-37.813938,144.963425,Australia,AU,Victoria,admin,,
CHELTENHAM,-37.813938,144.963425,Australia,AU,Victoria,admin,,
HENDON,-37.813938,144.963425,Australia,AU,Victoria,admin,,
QUEENSTOWN,-37.813938,144.963425,Australia,AU,Victoria,admin,,
ROYAL PARK,-37.813938,144.963425,Australia,AU,Victoria,admin,,
BIRKENHEAD,-37.813938,144.963425,Australia,AU,Victoria,admin,,
ETHELTON,-37.813938,144.963425,Australia,AU,Victoria,admin,,
GLANVILLE,-37.813938,144.963425,Australia,AU,Victoria,admin,,
AMATA,-37.813938,144.963425,Australia,AU,Victoria,admin,,
ALLENBY GARDENS,-37.813938,144.963425,Australia,AU,Victoria,admin,,
BEVERLEY,-37.813938,144.963425,Australia,AU,Victoria,admin,,
KILKENNY,-37.813938,144.963425,Australia,AU,Victoria,admin,,
ANGLE PARK,-37.813938,144.963425,Australia,AU,Victoria,admin,,
FERRYDEN PARK,-37.813938,144.963425,Australia,AU,Victoria,admin,,
REGENCY PARK,-37.813938,144.963425,Australia,AU,Victoria,admin,,
ST CLAIR,-37.813938,144.963425,Australia,AU,Victoria,admin,,
WOODVILLE,-37.813938,144.963425,Australia,AU,Victoria,admin,,
WOODVILLE PARK,-37.813938,144.963425,Australia,AU,Victoria,admin,,
WOODVILLE SOUTH,-37.813938,144.963425,Australia,AU,Victoria,admin,,
WOODVILLE WEST,-37.813938,144.963425,Australia,AU,Victoria,admin,,
ANANGU PITJANTJATJARA YANKUNYTJATJARA,-37.813938,144.963425,Australia,AU,Victoria,admin,,
AYERS RANGE SOUTH,-37.813938,144.963425,Australia,AU,Victoria,admin,,
DE ROSE HILL,-37.813938,144.963425,Australia,AU,Victoria,admin,,
IWANTJA,-37.813938,144.963425,Australia,AU,Victoria,admin,,
KALKA,-37.813938,144.963425,Australia,AU,Victoria,admin,,
KALTJITI,-37.813938,144.963425,Australia,AU,Victoria,admin,,
KANPI,-37.813938,144.963425,Australia,AU,Victoria,admin,,
LAMBINA,-37.813938,144.963425,Australia,AU,Victoria,admin,,
MIMILI,-37.813938,144.963425,Australia,AU,Victoria,admin,,
MURPUTJA,-37.813938,144.963425,Australia,AU,Victoria,admin,,
NYAPARI,-37.813938,144.963425,Australia,AU,Victoria,admin,,
PIPALYATJARA,-37.813938,144.963425,Australia,AU,Victoria,admin,,
PUKATJA,-37.813938,144.963425,Australia,AU,Victoria,admin,,
TIEYON,-37.813938,144.963425,Australia,AU,Victoria,admin,,
UMUWA,-37.813938,144.963425,Australia,AU,Victoria,admin,,
WATARRU,-37.813938,144.963425,Australia,AU,Victoria,admin,,
WATINUMA,-37.813938,144.963425,Australia,AU,Victoria,admin,,
YUNYARINYI,-37.813938,144.963425,Australia,AU,Victoria,admin,,
WELLAND,-37.813938,144.963425,Australia,AU,Victoria,admin,,
ADELAIDE,-37.813938,144.963425,Australia,AU,Victoria,admin,,
NORTH ADELAIDE,-37.813938,144.963425,Australia,AU,Victoria,admin,,
BOWDEN,-37.813938,144.963425,Australia,AU,Victoria,admin,,
BROMPTON,-37.813938,144.963425,Australia,AU,Victoria,admin,,
HINDMARSH,-37.813938,144.963425,Australia,AU,Victoria,admin,,
WEST HINDMARSH,-37.813938,144.963425,Australia,AU,Victoria,admin,,
CROYDON,-37.813938,144.963425,Australia,AU,Victoria,admin,,
CROYDON PARK,-37.813938,144.963425,Australia,AU,Victoria,admin,,
DEVON PARK,-37.813938,144.963425,Australia,AU,Victoria,admin,,
DUDLEY PARK,-37.813938,144.963425,Australia,AU,Victoria,admin,,
RENOWN PARK,-37.813938,144.963425,Australia,AU,Victoria,admin,,
RIDLEYTON,-37.813938,144.963425,Australia,AU,Victoria,admin,,
WEST CROYDON,-37.813938,144.963425,Australia,AU,Victoria,admin,,
OSBORNE,-37.813938,144.963425,Australia,AU,Victoria,admin,,
TAPEROO,-37.813938,144.963425,Australia,AU,Victoria,admin,,
NORTH HAVEN,-37.813938,144.963425,Australia,AU,Victoria,admin,,
OUTER HARBOR,-37.813938,144.963425,Australia,AU,Victoria,admin,,
EXETER,-37.813938,144.963425,Australia,AU,Victoria,admin,,
SEMAPHORE,-37.813938,144.963425,Australia,AU,Victoria,admin,,
SEMAPHORE PARK,-37.813938,144.963425,Australia,AU,Victoria,admin,,
SEMAPHORE SOUTH,-37.813938,144.963425,Australia,AU,Victoria,admin,,
WEST LAKES SHORE,-37.813938,144.963425,Australia,AU,Victoria,admin,,
ATHOL PARK,-37.813938,144.963425,Australia,AU,Victoria,admin,,
MANSFIELD PARK,-37.813938,144.963425,Australia,AU,Victoria,admin,,
WOODVILLE GARDENS,-37.813938,144.963425,Australia,AU,Victoria,admin,,
WOODVILLE NORTH,-37.813938,144.963425,Australia,AU,Victoria,admin,,
GILLMAN,-37.813938,144.963425,Australia,AU,Victoria,admin,,
TENNYSON,-37.813938,144.963425,Australia,AU,Victoria,admin,,
FINDON,-37.813938,144.963425,Australia,AU,Victoria,admin,,
SEATON,-37.813938,144.963425,Australia,AU,Victoria,admin,,
FULHAM,-37.813938,144.963425,Australia,AU,Victoria,admin,,
FULHAM GARDENS,-37.813938,144.963425,Australia,AU,Victoria,admin,,
MILE END SOUTH,-37.813938,144.963425,Australia,AU,Victoria,admin,,
THEBARTON,-37.813938,144.963425,Australia,AU,Victoria,admin,,
TORRENSVILLE,-37.813938,144.963425,Australia,AU,Victoria,admin,,
BROOKLYN PARK,-37.813938,144.963425,Australia,AU,Victoria,admin,,
LOCKLEYS,-37.813938,144.963425,Australia,AU,Victoria,admin,,
UNDERDALE,-37.813938,144.963425,Australia,AU,Victoria,admin,,
COWANDILLA,-37.813938,144.963425,Australia,AU,Victoria,admin,,
HILTON,-37.813938,144.963425,Australia,AU,Victoria,admin,,
MARLESTON,-37.813938,144.963425,Australia,AU,Victoria,admin,,
RICHMOND,-37.813938,144.963425,Australia,AU,Victoria,admin,,
WEST RICHMOND,-37.813938,144.963425,Australia,AU,Victoria,admin,,
CLARENCE PARK,-37.813938,144.963425,Australia,AU,Victoria,admin,,
GOODWOOD,-37.813938,144.963425,Australia,AU,Victoria,admin,,
KINGS PARK,-37.813938,144.963425,Australia,AU,Victoria,admin,,
NORTH PLYMPTON,-37.813938,144.963425,Australia,AU,Victoria,admin,,
CAMDEN PARK,-37.813938,144.963425,Australia,AU,Victoria,admin,,
PLYMPTON,-37.813938,144.963425,Australia,AU,Victoria,admin,,
PLYMPTON PARK,-37.813938,144.963425,Australia,AU,Victoria,admin,,
SOUTH PLYMPTON,-37.813938,144.963425,Australia,AU,Victoria,admin,,
CLARENCE GARDENS,-37.813938,144.963425,Australia,AU,Victoria,admin,,
EDWARDSTOWN,-37.813938,144.963425,Australia,AU,Victoria,admin,,
MELROSE PARK,-37.813938,144.963425,Australia,AU,Victoria,admin,,
NOVAR GARDENS,-37.813938,144.963425,Australia,AU,Victoria,admin,,
MILLSWOOD,-37.813938,144.963425,Australia,AU,Victoria,admin,,
WAYVILLE,-37.813938,144.963425,Australia,AU,Victoria,admin,,
ASHFORD,-37.813938,144.963425,Australia,AU,Victoria,admin,,
BLACK FOREST,-37.813938,144.963425,Australia,AU,Victoria,admin,,
EVERARD PARK,-37.813938,144.963425,Australia,AU,Victoria,admin,,
FORESTVILLE,-37.813938,144.963425,Australia,AU,Victoria,admin,,
KESWICK,-37.813938,144.963425,Australia,AU,Victoria,admin,,
KESWICK TERMINAL,-37.813938,144.963425,Australia,AU,Victoria,admin,,
GLANDORE,-37.813938,144.963425,Australia,AU,Victoria,admin,,
KURRALTA PARK,-37.813938,144.963425,Australia,AU,Victoria,admin,,
NETLEY,-37.813938,144.963425,Australia,AU,Victoria,admin,,
WEST BEACH,-37.813938,144.963425,Australia,AU,Victoria,admin,,
FLINDERS PARK,-37.813938,144.963425,Australia,AU,Victoria,admin,,
KIDMAN PARK,-37.813938,144.963425,Australia,AU,Victoria,admin,,
MILE END,-37.813938,144.963425,Australia,AU,Victoria,admin,,
NEW PORT,-37.813938,144.963425,Australia,AU,Victoria,admin,,
PORT ADELAIDE,-37.813938,144.963425,Australia,AU,Victoria,admin,,
LARGS BAY,-37.813938,144.963425,Australia,AU,Victoria,admin,,
LARGS NORTH,-37.813938,144.963425,Australia,AU,Victoria,admin,,
PETERHEAD,-37.813938,144.963425,Australia,AU,Victoria,admin,,
HYDE PARK,-37.813938,144.963425,Australia,AU,Victoria,admin,,
MALVERN,-37.813938,144.963425,Australia,AU,Victoria,admin,,
UNLEY,-37.813938,144.963425,Australia,AU,Victoria,admin,,
UNLEY PARK,-37.813938,144.963425,Australia,AU,Victoria,admin,,
BROWN HILL CREEK,-37.813938,144.963425,Australia,AU,Victoria,admin,,
CLAPHAM,-37.813938,144.963425,Australia,AU,Victoria,admin,,
HAWTHORN,-37.813938,144.963425,Australia,AU,Victoria,admin,,
KINGSWOOD,-37.813938,144.963425,Australia,AU,Victoria,admin,,
BEDFORD PARK,-37.813938,144.963425,Australia,AU,Victoria,admin,,
CLOVELLY PARK,-37.813938,144.963425,Australia,AU,Victoria,admin,,
PASADENA,-37.813938,144.963425,Australia,AU,Victoria,admin,,
ST MARYS,-37.813938,144.963425,Australia,AU,Victoria,admin,,
TONSLEY,-37.813938,144.963425,Australia,AU,Victoria,admin,,
ASCOT PARK,-37.813938,144.963425,Australia,AU,Victoria,admin,,
MARION,-37.813938,144.963425,Australia,AU,Victoria,admin,,
COROMANDEL VALLEY,-37.813938,144.963425,Australia,AU,Victoria,admin,,
CRAIGBURN FARM,-37.813938,144.963425,Australia,AU,Victoria,admin,,
HAWTHORNDENE,-37.813938,144.963425,Australia,AU,Victoria,admin,,
BELAIR,-37.813938,144.963425,Australia,AU,Victoria,admin,,
GLENALTA,-37.813938,144.963425,Australia,AU,Victoria,admin,,
COLONEL LIGHT GARDENS,-37.813938,144.963425,Australia,AU,Victoria,admin,,
CUMBERLAND PARK,-37.813938,144.963425,Australia,AU,Victoria,admin,,
DAW PARK,-37.813938,144.963425,Australia,AU,Victoria,admin,,
PANORAMA,-37.813938,144.963425,Australia,AU,Victoria,admin,,
WESTBOURNE PARK,-37.813938,144.963425,Australia,AU,Victoria,admin,,
WEST LAKES,-37.813938,144.963425,Australia,AU,Victoria,admin,,
GRANGE,-37.813938,144.963425,Australia,AU,Victoria,admin,,
HENLEY BEACH,-37.813938,144.963425,Australia,AU,Victoria,admin,,
HENLEY BEACH SOUTH,-37.813938,144.963425,Australia,AU,Victoria,admin,,
GLENELG SOUTH,-37.813938,144.963425,Australia,AU,Victoria,admin,,
OAKLANDS PARK,-37.813938,144.963425,Australia,AU,Victoria,admin,,
WARRADALE,-37.813938,144.963425,Australia,AU,Victoria,admin,,
DARLINGTON,-37.813938,144.963425,Australia,AU,Victoria,admin,,
SEACOMBE GARDENS,-37.813938,144.963425,Australia,AU,Victoria,admin,,
SEACOMBE HEIGHTS,-37.813938,144.963425,Australia,AU,Victoria,admin,,
STURT,-37.813938,144.963425,Australia,AU,Victoria,admin,,
BRIGHTON,-37.813938,144.963425,Australia,AU,Victoria,admin,,
DOVER GARDENS,-37.813938,144.963425,Australia,AU,Victoria,admin,,
HOVE,-37.813938,144.963425,Australia,AU,Victoria,admin,,
NORTH BRIGHTON,-37.813938,144.963425,Australia,AU,Victoria,admin,,
SOUTH BRIGHTON,-37.813938,144.963425,Australia,AU,Victoria,admin,,
KINGSTON PARK,-37.813938,144.963425,Australia,AU,Victoria,admin,,
MARINO,-37.813938,144.963425,Australia,AU,Victoria,admin,,
SEACLIFF,-37.813938,144.963425,Australia,AU,Victoria,admin,,
SEACLIFF PARK,-37.813938,144.963425,Australia,AU,Victoria,admin,,
SEAVIEW DOWNS,-37.813938,144.963425,Australia,AU,Victoria,admin,,
BELLEVUE HEIGHTS,-37.813938,144.963425,Australia,AU,Victoria,admin,,
EDEN HILLS,-37.813938,144.963425,Australia,AU,Victoria,admin,,
BLACKWOOD,-37.813938,144.963425,Australia,AU,Victoria,admin,,
TRINITY GARDENS,-37.813938,144.963425,Australia,AU,Victoria,admin,,
LOWER MITCHAM,-37.813938,144.963425,Australia,AU,Victoria,admin,,
LYNTON,-37.813938,144.963425,Australia,AU,Victoria,admin,,
MITCHAM,-37.813938,144.963425,Australia,AU,Victoria,admin,,
NETHERBY,-37.813938,144.963425,Australia,AU,Victoria,admin,,
SPRINGFIELD,-37.813938,144.963425,Australia,AU,Victoria,admin,,
TORRENS PARK,-37.813938,144.963425,Australia,AU,Victoria,admin,,
EASTWOOD,-37.813938,144.963425,Australia,AU,Victoria,admin,,
FREWVILLE,-37.813938,144.963425,Australia,AU,Victoria,admin,,
FULLARTON,-37.813938,144.963425,Australia,AU,Victoria,admin,,
MITCHELL PARK,-37.813938,144.963425,Australia,AU,Victoria,admin,,
MORPHETTVILLE,-37.813938,144.963425,Australia,AU,Victoria,admin,,
PARK HOLME,-37.813938,144.963425,Australia,AU,Victoria,admin,,
GLENGOWRIE,-37.813938,144.963425,Australia,AU,Victoria,admin,,
SOMERTON PARK,-37.813938,144.963425,Australia,AU,Victoria,admin,,
GLENELG,-37.813938,144.963425,Australia,AU,Victoria,admin,,
GLENELG EAST,-37.813938,144.963425,Australia,AU,Victoria,admin,,
GLENELG NORTH,-37.813938,144.963425,Australia,AU,Victoria,admin,,
TOORAK GARDENS,-37.813938,144.963425,Australia,AU,Victoria,admin,,
TUSMORE,-37.813938,144.963425,Australia,AU,Victoria,admin,,
BEAUMONT,-37.813938,144.963425,Australia,AU,Victoria,admin,,
BURNSIDE,-37.813938,144.963425,Australia,AU,Victoria,admin,,
ERINDALE,-37.813938,144.963425,Australia,AU,Victoria,admin,,
HAZELWOOD PARK,-37.813938,144.963425,Australia,AU,Victoria,admin,,
STONYFELL,-37.813938,144.963425,Australia,AU,Victoria,admin,,
WATERFALL GULLY,-37.813938,144.963425,Australia,AU,Victoria,admin,,
WATTLE PARK,-37.813938,144.963425,Australia,AU,Victoria,admin,,
BEULAH PARK,-37.813938,144.963425,Australia,AU,Victoria,admin,,
COLLEGE PARK,-37.813938,144.963425,Australia,AU,Victoria,admin,,
EVANDALE,-37.813938,144.963425,Australia,AU,Victoria,admin,,
HACKNEY,-37.813938,144.963425,Australia,AU,Victoria,admin,,
MAYLANDS,-37.813938,144.963425,Australia,AU,Victoria,admin,,
ST PETERS,-37.813938,144.963425,Australia,AU,Victoria,admin,,
STEPNEY,-37.813938,144.963425,Australia,AU,Victoria,admin,,
FELIXSTOW,-37.813938,144.963425,Australia,AU,Victoria,admin,,
FIRLE,-37.813938,144.963425,Australia,AU,Victoria,admin,,
GLYNDE,-37.813938,144.963425,Australia,AU,Victoria,admin,,
JOSLIN,-37.813938,144.963425,Australia,AU,Victoria,admin,,
MARDEN,-37.813938,144.963425,Australia,AU,Victoria,admin,,
PAYNEHAM,-37.813938,144.963425,Australia,AU,Victoria,admin,,
PAYNEHAM SOUTH,-37.813938,144.963425,Australia,AU,Victoria,admin,,
ROYSTON PARK,-37.813938,144.963425,Australia,AU,Victoria,admin,,
AULDANA,-37.813938,144.963425,Australia,AU,Victoria,admin,,
MAGILL,-37.813938,144.963425,Australia,AU,Victoria,admin,,
ROSSLYN PARK,-37.813938,144.963425,Australia,AU,Victoria,admin,,
NEWTON,-37.813938,144.963425,Australia,AU,Victoria,admin,,
DERNANCOURT,-37.813938,144.963425,Australia,AU,Victoria,admin,,
PARADISE,-37.813938,144.963425,Australia,AU,Victoria,admin,,
ATHELSTONE,-37.813938,144.963425,Australia,AU,Victoria,admin,,
SKYE,-37.813938,144.963425,Australia,AU,Victoria,admin,,
TERINGIE,-37.813938,144.963425,Australia,AU,Victoria,admin,,
WOODFORDE,-37.813938,144.963425,Australia,AU,Victoria,admin,,
HECTORVILLE,-37.813938,144.963425,Australia,AU,Victoria,admin,,
ROSTREVOR,-37.813938,144.963425,Australia,AU,Victoria,admin,,
TRANMERE,-37.813938,144.963425,Australia,AU,Victoria,admin,,
CAMPBELLTOWN,-37.813938,144.963425,Australia,AU,Victoria,admin,,
KENT TOWN,-37.813938,144.963425,Australia,AU,Victoria,admin,,
NORWOOD,-37.813938,144.963425,Australia,AU,Victoria,admin,,
ROSE PARK,-37.813938,144.963425,Australia,AU,Victoria,admin,,
HEATHPOOL,-37.813938,144.963425,Australia,AU,Victoria,admin,,
KENSINGTON,-37.813938,144.963425,Australia,AU,Victoria,admin,,
KENSINGTON GARDENS,-37.813938,144.963425,Australia,AU,Victoria,admin,,
KENSINGTON PARK,-37.813938,144.963425,Australia,AU,Victoria,admin,,
LEABROOK,-37.813938,144.963425,Australia,AU,Victoria,admin,,
MARRYATVILLE,-37.813938,144.963425,Australia,AU,Victoria,admin,,
ST MORRIS,-37.813938,144.963425,Australia,AU,Victoria,admin,,
PARA VISTA,-37.813938,144.963425,Australia,AU,Victoria,admin,,
VALLEY VIEW,-37.813938,144.963425,Australia,AU,Victoria,admin,,
CAVAN,-37.813938,144.963425,Australia,AU,Victoria,admin,,
DRY CREEK,-37.813938,144.963425,Australia,AU,Victoria,admin,,
GEPPS CROSS,-37.813938,144.963425,Australia,AU,Victoria,admin,,
MAWSON LAKES,-37.813938,144.963425,Australia,AU,Victoria,admin,,
VALE PARK,-37.813938,144.963425,Australia,AU,Victoria,admin,,
WALKERVILLE,-37.813938,144.963425,Australia,AU,Victoria,admin,,
FITZROY,-37.813938,144.963425,Australia,AU,Victoria,admin,,
OVINGHAM,-37.813938,144.963425,Australia,AU,Victoria,admin,,
PROSPECT,-37.813938,144.963425,Australia,AU,Victoria,admin,,
THORNGATE,-37.813938,144.963425,Australia,AU,Victoria,admin,,
BROADVIEW,-37.813938,144.963425,Australia,AU,Victoria,admin,,
HOPE VALLEY,-37.813938,144.963425,Australia,AU,Victoria,admin,,
BANKSIA PARK,-37.813938,144.963425,Australia,AU,Victoria,admin,,
TEA TREE GULLY,-37.813938,144.963425,Australia,AU,Victoria,admin,,
VISTA,-37.813938,144.963425,Australia,AU,Victoria,admin,,
MODBURY,-37.813938,144.963425,Australia,AU,Victoria,admin,,
MODBURY HEIGHTS,-37.813938,144.963425,Australia,AU,Victoria,admin,,
MODBURY NORTH,-37.813938,144.963425,Australia,AU,Victoria,admin,,
CASTAMBUL,-37.813938,144.963425,Australia,AU,Victoria,admin,,
COLLINSWOOD,-37.813938,144.963425,Australia,AU,Victoria,admin,,
GILBERTON,-37.813938,144.963425,Australia,AU,Victoria,admin,,
MEDINDIE,-37.813938,144.963425,Australia,AU,Victoria,admin,,
MEDINDIE GARDENS,-37.813938,144.963425,Australia,AU,Victoria,admin,,
HIGHGATE,-37.813938,144.963425,Australia,AU,Victoria,admin,,
PARKSIDE,-37.813938,144.963425,Australia,AU,Victoria,admin,,
GLEN OSMOND,-37.813938,144.963425,Australia,AU,Victoria,admin,,
GLENUNGA,-37.813938,144.963425,Australia,AU,Victoria,admin,,
MOUNT OSMOND,-37.813938,144.963425,Australia,AU,Victoria,admin,,
MYRTLE BANK,-37.813938,144.963425,Australia,AU,Victoria,admin,,
ST GEORGES,-37.813938,144.963425,Australia,AU,Victoria,admin,,
URRBRAE,-37.813938,144.963425,Australia,AU,Victoria,admin,,
DULWICH,-37.813938,144.963425,Australia,AU,Victoria,admin,,
GLENSIDE,-37.813938,144.963425,Australia,AU,Victoria,admin,,
LINDEN PARK,-37.813938,144.963425,Australia,AU,Victoria,admin,,
NORTHFIELD,-37.813938,144.963425,Australia,AU,Victoria,admin,,
NORTHGATE,-37.813938,144.963425,Australia,AU,Victoria,admin,,
GILLES PLAINS,-37.813938,144.963425,Australia,AU,Victoria,admin,,
GREENACRES,-37.813938,144.963425,Australia,AU,Victoria,admin,,
HAMPSTEAD GARDENS,-37.813938,144.963425,Australia,AU,Victoria,admin,,
HILLCREST,-37.813938,144.963425,Australia,AU,Victoria,admin,,
MANNINGHAM,-37.813938,144.963425,Australia,AU,Victoria,admin,,
OAKDEN,-37.813938,144.963425,Australia,AU,Victoria,admin,,
KLEMZIG,-37.813938,144.963425,Australia,AU,Victoria,admin,,
WINDSOR GARDENS,-37.813938,144.963425,Australia,AU,Victoria,admin,,
HOLDEN HILL,-37.813938,144.963425,Australia,AU,Victoria,admin,,
HIGHBURY,-37.813938,144.963425,Australia,AU,Victoria,admin,,
POORAKA,-37.813938,144.963425,Australia,AU,Victoria,admin,,
GULFVIEW HEIGHTS,-37.813938,144.963425,Australia,AU,Victoria,admin,,
PARA HILLS,-37.813938,144.963425,Australia,AU,Victoria,admin,,
PARA HILLS WEST,-37.813938,144.963425,Australia,AU,Victoria,admin,,
REDWOOD PARK,-37.813938,144.963425,Australia,AU,Victoria,admin,,
RIDGEHAVEN,-37.813938,144.963425,Australia,AU,Victoria,admin,,
ST AGNES,-37.813938,144.963425,Australia,AU,Victoria,admin,,
INGLE FARM,-37.813938,144.963425,Australia,AU,Victoria,admin,,
WALKLEY HEIGHTS,-37.813938,144.963425,Australia,AU,Victoria,admin,,
NAILSWORTH,-37.813938,144.963425,Australia,AU,Victoria,admin,,
SEFTON PARK,-37.813938,144.963425,Australia,AU,Victoria,admin,,
BLAIR ATHOL,-37.813938,144.963425,Australia,AU,Victoria,admin,,
KILBURN,-37.813938,144.963425,Australia,AU,Victoria,admin,,
CLEARVIEW,-37.813938,144.963425,Australia,AU,Victoria,admin,,
ENFIELD,-37.813938,144.963425,Australia,AU,Victoria,admin,,
LIGHTSVIEW,-37.813938,144.963425,Australia,AU,Victoria,admin,,
SALISBURY,-37.813938,144.963425,Australia,AU,Victoria,admin,,
SALISBURY DOWNS,-37.813938,144.963425,Australia,AU,Victoria,admin,,
SALISBURY NORTH,-37.813938,144.963425,Australia,AU,Victoria,admin,,
BRAHMA LODGE,-37.813938,144.963425,Australia,AU,Victoria,admin,,
SALISBURY EAST,-37.813938,144.963425,Australia,AU,Victoria,admin,,
BURTON,-37.813938,144.963425,Australia,AU,Victoria,admin,,
DIREK,-37.813938,144.963425,Australia,AU,Victoria,admin,,
GLOBE DERBY PARK,-37.813938,144.963425,Australia,AU,Victoria,admin,,
ST KILDA,-37.813938,144.963425,Australia,AU,Victoria,admin,,
WATERLOO CORNER,-37.813938,144.963425,Australia,AU,Victoria,admin,,
EDINBURGH,-37.813938,144.963425,Australia,AU,Victoria,admin,,
ELIZABETH,-37.813938,144.963425,Australia,AU,Victoria,admin,,
ELIZABETH EAST,-37.813938,144.963425,Australia,AU,Victoria,admin,,
ELIZABETH GROVE,-37.813938,144.963425,Australia,AU,Victoria,admin,,
ELIZABETH SOUTH,-37.813938,144.963425,Australia,AU,Victoria,admin,,
ELIZABETH VALE,-37.813938,144.963425,Australia,AU,Victoria,admin,,
HILLBANK,-37.813938,144.963425,Australia,AU,Victoria,admin,,
DAVOREN PARK,-37.813938,144.963425,Australia,AU,Victoria,admin,,
EDINBURGH NORTH,-37.813938,144.963425,Australia,AU,Victoria,admin,,
ELIZABETH DOWNS,-37.813938,144.963425,Australia,AU,Victoria,admin,,
ELIZABETH NORTH,-37.813938,144.963425,Australia,AU,Victoria,admin,,
ELIZABETH PARK,-37.813938,144.963425,Australia,AU,Victoria,admin,,
SAMPSON FLAT,-37.813938,144.963425,Australia,AU,Victoria,admin,,
SMITHFIELD,-37.813938,144.963425,Australia,AU,Victoria,admin,,
SMITHFIELD PLAINS,-37.813938,144.963425,Australia,AU,Victoria,admin,,
ULEYBURY,-37.813938,144.963425,Australia,AU,Victoria,admin,,
YATTALUNGA,-37.813938,144.963425,Australia,AU,Victoria,admin,,
KUDLA,-37.813938,144.963425,Australia,AU,Victoria,admin,,
MUNNO PARA,-37.813938,144.963425,Australia,AU,Victoria,admin,,
MUNNO PARA DOWNS,-37.813938,144.963425,Australia,AU,Victoria,admin,,
ANDREWS FARM,-37.813938,144.963425,Australia,AU,Victoria,admin,,
BLAKEVIEW,-37.813938,144.963425,Australia,AU,Victoria,admin,,
CRAIGMORE,-37.813938,144.963425,Australia,AU,Victoria,admin,,
GOULD CREEK,-37.813938,144.963425,Australia,AU,Victoria,admin,,
HUMBUG SCRUB,-37.813938,144.963425,Australia,AU,Victoria,admin,,
ONE TREE HILL,-37.813938,144.963425,Australia,AU,Victoria,admin,,
SALISBURY HEIGHTS,-37.813938,144.963425,Australia,AU,Victoria,admin,,
SALISBURY PARK,-37.813938,144.963425,Australia,AU,Victoria,admin,,
SALISBURY PLAIN,-37.813938,144.963425,Australia,AU,Victoria,admin,,
BOLIVAR,-37.813938,144.963425,Australia,AU,Victoria,admin,,
UPPER HERMITAGE,-37.813938,144.963425,Australia,AU,Victoria,admin,,
PARACOMBE,-37.813938,144.963425,Australia,AU,Victoria,admin,,
INGLEWOOD,-37.813938,144.963425,Australia,AU,Victoria,admin,,
CHERRYVILLE,-37.813938,144.963425,Australia,AU,Victoria,admin,,
MONTACUTE,-37.813938,144.963425,Australia,AU,Victoria,admin,,
NORTON SUMMIT,-37.813938,144.963425,Australia,AU,Victoria,admin,,
GAWLER EAST,-37.813938,144.963425,Australia,AU,Victoria,admin,,
GAWLER RIVER,-37.813938,144.963425,Australia,AU,Victoria,admin,,
GAWLER SOUTH,-37.813938,144.963425,Australia,AU,Victoria,admin,,
GAWLER WEST,-37.813938,144.963425,Australia,AU,Victoria,admin,,
HEWETT,-37.813938,144.963425,Australia,AU,Victoria,admin,,
KALBEEBA,-37.813938,144.963425,Australia,AU,Victoria,admin,,
KANGAROO FLAT,-37.813938,144.963425,Australia,AU,Victoria,admin,,
KINGSFORD,-37.813938,144.963425,Australia,AU,Victoria,admin,,
REID,-37.813938,144.963425,Australia,AU,Victoria,admin,,
WYNN VALE,-37.813938,144.963425,Australia,AU,Victoria,admin,,
HOUGHTON,-37.813938,144.963425,Australia,AU,Victoria,admin,,
LOWER HERMITAGE,-37.813938,144.963425,Australia,AU,Victoria,admin,,
MUNNO PARA WEST,-37.813938,144.963425,Australia,AU,Victoria,admin,,
EVANSTON,-37.813938,144.963425,Australia,AU,Victoria,admin,,
EVANSTON GARDENS,-37.813938,144.963425,Australia,AU,Victoria,admin,,
EVANSTON PARK,-37.813938,144.963425,Australia,AU,Victoria,admin,,
EVANSTON SOUTH,-37.813938,144.963425,Australia,AU,Victoria,admin,,
HILLIER,-37.813938,144.963425,Australia,AU,Victoria,admin,,
ANGLE VALE,-37.813938,144.963425,Australia,AU,Victoria,admin,,
BIBARINGA,-37.813938,144.963425,Australia,AU,Victoria,admin,,
BUCHFELDE,-37.813938,144.963425,Australia,AU,Victoria,admin,,
CONCORDIA,-37.813938,144.963425,Australia,AU,Victoria,admin,,
GAWLER,-37.813938,144.963425,Australia,AU,Victoria,admin,,
GAWLER BELT,-37.813938,144.963425,Australia,AU,Victoria,admin,,
PARAFIELD,-37.813938,144.963425,Australia,AU,Victoria,admin,,
SALISBURY SOUTH,-37.813938,144.963425,Australia,AU,Victoria,admin,,
GREEN FIELDS,-37.813938,144.963425,Australia,AU,Victoria,admin,,
PARAFIELD GARDENS,-37.813938,144.963425,Australia,AU,Victoria,admin,,
PARALOWIE,-37.813938,144.963425,Australia,AU,Victoria,admin,,
WILLASTON,-37.813938,144.963425,Australia,AU,Victoria,admin,,
BUCKLAND PARK,-37.813938,144.963425,Australia,AU,Victoria,admin,,
VIRGINIA,-37.813938,144.963425,Australia,AU,Victoria,admin,,
EYRE,-37.813938,144.963425,Australia,AU,Victoria,admin,,
MACDONALD PARK,-37.813938,144.963425,Australia,AU,Victoria,admin,,
PENFIELD,-37.813938,144.963425,Australia,AU,Victoria,admin,,
PENFIELD GARDENS,-37.813938,144.963425,Australia,AU,Victoria,admin,,
GOLDEN GROVE,-37.813938,144.963425,Australia,AU,Victoria,admin,,
GREENWITH,-37.813938,144.963425,Australia,AU,Victoria,admin,,
FAIRVIEW PARK,-37.813938,144.963425,Australia,AU,Victoria,admin,,
SURREY DOWNS,-37.813938,144.963425,Australia,AU,Victoria,admin,,
YATALA VALE,-37.813938,144.963425,Australia,AU,Victoria,admin,,
FOREST RANGE,-37.813938,144.963425,Australia,AU,Victoria,admin,,
GREENHILL,-37.813938,144.963425,Australia,AU,Victoria,admin,,
HORSNELL GULLY,-37.813938,144.963425,Australia,AU,Victoria,admin,,
SUMMERTOWN,-37.813938,144.963425,Australia,AU,Victoria,admin,,
URAIDLA,-37.813938,144.963425,Australia,AU,Victoria,admin,,
CAREY GULLY,-37.813938,144.963425,Australia,AU,Victoria,admin,,
WARD BELT,-37.813938,144.963425,Australia,AU,Victoria,admin,,
CRAFERS WEST,-37.813938,144.963425,Australia,AU,Victoria,admin,,
STIRLING,-37.813938,144.963425,Australia,AU,Victoria,admin,,
BIGGS FLAT,-37.813938,144.963425,Australia,AU,Victoria,admin,,
BRADBURY,-37.813938,144.963425,Australia,AU,Victoria,admin,,
CHAPEL HILL,-37.813938,144.963425,Australia,AU,Victoria,admin,,
JUPITER CREEK,-37.813938,144.963425,Australia,AU,Victoria,admin,,
LONGWOOD,-37.813938,144.963425,Australia,AU,Victoria,admin,,
MACCLESFIELD,-37.813938,144.963425,Australia,AU,Victoria,admin,,
MYLOR,-37.813938,144.963425,Australia,AU,Victoria,admin,,
SCOTT CREEK,-37.813938,144.963425,Australia,AU,Victoria,admin,,
ALDGATE,-37.813938,144.963425,Australia,AU,Victoria,admin,,
BRIDGEWATER,-37.813938,144.963425,Australia,AU,Victoria,admin,,
MOUNT GEORGE,-37.813938,144.963425,Australia,AU,Victoria,admin,,
UPPER STURT,-37.813938,144.963425,Australia,AU,Victoria,admin,,
ASHBOURNE,-37.813938,144.963425,Australia,AU,Victoria,admin,,
BULL CREEK,-37.813938,144.963425,Australia,AU,Victoria,admin,,
KANGARILLA,-37.813938,144.963425,Australia,AU,Victoria,admin,,
MCHARG CREEK,-37.813938,144.963425,Australia,AU,Victoria,admin,,
HALLETT COVE,-37.813938,144.963425,Australia,AU,Victoria,admin,,
O'HALLORAN HILL,-37.813938,144.963425,Australia,AU,Victoria,admin,,
SHEIDOW PARK,-37.813938,144.963425,Australia,AU,Victoria,admin,,
TROTT PARK,-37.813938,144.963425,Australia,AU,Victoria,admin,,
CHERRY GARDENS,-37.813938,144.963425,Australia,AU,Victoria,admin,,
CLARENDON,-37.813938,144.963425,Australia,AU,Victoria,admin,,
COROMANDEL EAST,-37.813938,144.963425,Australia,AU,Victoria,admin,,
DORSET VALE,-37.813938,144.963425,Australia,AU,Victoria,admin,,
ECHUNGA,-37.813938,144.963425,Australia,AU,Victoria,admin,,
FLAXLEY,-37.813938,144.963425,Australia,AU,Victoria,admin,,
GREEN HILLS RANGE,-37.813938,144.963425,Australia,AU,Victoria,admin,,
HEATHFIELD,-37.813938,144.963425,Australia,AU,Victoria,admin,,
IRONBANK,-37.813938,144.963425,Australia,AU,Victoria,admin,,
ASHTON,-37.813938,144.963425,Australia,AU,Victoria,admin,,
MARBLE HILL,-37.813938,144.963425,Australia,AU,Victoria,admin,,
BASKET RANGE,-37.813938,144.963425,Australia,AU,Victoria,admin,,
YUNDI,-37.813938,144.963425,Australia,AU,Victoria,admin,,
ALDINGA,-37.813938,144.963425,Australia,AU,Victoria,admin,,
ALDINGA BEACH,-37.813938,144.963425,Australia,AU,Victoria,admin,,
PORT WILLUNGA,-37.813938,144.963425,Australia,AU,Victoria,admin,,
MCLAREN VALE,-37.813938,144.963425,Australia,AU,Victoria,admin,,
TATACHILLA,-37.813938,144.963425,Australia,AU,Victoria,admin,,
DINGABLEDINGA,-37.813938,144.963425,Australia,AU,Victoria,admin,,
HACKHAM,-37.813938,144.963425,Australia,AU,Victoria,admin,,
HACKHAM WEST,-37.813938,144.963425,Australia,AU,Victoria,admin,,
HUNTFIELD HEIGHTS,-37.813938,144.963425,Australia,AU,Victoria,admin,,
ONKAPARINGA HILLS,-37.813938,144.963425,Australia,AU,Victoria,admin,,
CHRISTIE DOWNS,-37.813938,144.963425,Australia,AU,Victoria,admin,,
CHRISTIES BEACH,-37.813938,144.963425,Australia,AU,Victoria,admin,,
HOPE FOREST,-37.813938,144.963425,Australia,AU,Victoria,admin,,
KUITPO COLONY,-37.813938,144.963425,Australia,AU,Victoria,admin,,
KYEEMA,-37.813938,144.963425,Australia,AU,Victoria,admin,,
MONTARRA,-37.813938,144.963425,Australia,AU,Victoria,admin,,
PAGES FLAT,-37.813938,144.963425,Australia,AU,Victoria,admin,,
ABERFOYLE PARK,-37.813938,144.963425,Australia,AU,Victoria,admin,,
CHANDLERS HILL,-37.813938,144.963425,Australia,AU,Victoria,admin,,
FLAGSTAFF HILL,-37.813938,144.963425,Australia,AU,Victoria,admin,,
HAPPY VALLEY,-37.813938,144.963425,Australia,AU,Victoria,admin,,
LONSDALE,-37.813938,144.963425,Australia,AU,Victoria,admin,,
OLD REYNELLA,-37.813938,144.963425,Australia,AU,Victoria,admin,,
REYNELLA,-37.813938,144.963425,Australia,AU,Victoria,admin,,
REYNELLA EAST,-37.813938,144.963425,Australia,AU,Victoria,admin,,
MORPHETT VALE,-37.813938,144.963425,Australia,AU,Victoria,admin,,
WOODCROFT,-37.813938,144.963425,Australia,AU,Victoria,admin,,
LEAWOOD GARDENS,-37.813938,144.963425,Australia,AU,Victoria,admin,,
PICCADILLY,-37.813938,144.963425,Australia,AU,Victoria,admin,,
CLELAND,-37.813938,144.963425,Australia,AU,Victoria,admin,,
CRAFERS,-37.813938,144.963425,Australia,AU,Victoria,admin,,
PORT NOARLUNGA,-37.813938,144.963425,Australia,AU,Victoria,admin,,
PORT NOARLUNGA SOUTH,-37.813938,144.963425,Australia,AU,Victoria,admin,,
NOARLUNGA CENTRE,-37.813938,144.963425,Australia,AU,Victoria,admin,,
NOARLUNGA DOWNS,-37.813938,144.963425,Australia,AU,Victoria,admin,,
OLD NOARLUNGA,-37.813938,144.963425,Australia,AU,Victoria,admin,,
MOANA,-37.813938,144.963425,Australia,AU,Victoria,admin,,
SEAFORD,-37.813938,144.963425,Australia,AU,Victoria,admin,,
SEAFORD HEIGHTS,-37.813938,144.963425,Australia,AU,Victoria,admin,,
SEAFORD MEADOWS,-37.813938,144.963425,Australia,AU,Victoria,admin,,
SEAFORD RISE,-37.813938,144.963425,Australia,AU,Victoria,admin,,
MASLIN BEACH,-37.813938,144.963425,Australia,AU,Victoria,admin,,
BLEWITT SPRINGS,-37.813938,144.963425,Australia,AU,Victoria,admin,,
MCLAREN FLAT,-37.813938,144.963425,Australia,AU,Victoria,admin,,
THE RANGE,-37.813938,144.963425,Australia,AU,Victoria,admin,,
WHITES VALLEY,-37.813938,144.963425,Australia,AU,Victoria,admin,,
WILLUNGA,-37.813938,144.963425,Australia,AU,Victoria,admin,,
WILLUNGA HILL,-37.813938,144.963425,Australia,AU,Victoria,admin,,
WILLUNGA SOUTH,-37.813938,144.963425,Australia,AU,Victoria,admin,,
PARIS CREEK,-37.813938,144.963425,Australia,AU,Victoria,admin,,
PROSPECT HILL,-37.813938,144.963425,Australia,AU,Victoria,admin,,
HINDMARSH TIERS,-37.813938,144.963425,Australia,AU,Victoria,admin,,
MYPONGA,-37.813938,144.963425,Australia,AU,Victoria,admin,,
MYPONGA BEACH,-37.813938,144.963425,Australia,AU,Victoria,admin,,
BALD HILLS,-37.813938,144.963425,Australia,AU,Victoria,admin,,
O'SULLIVAN BEACH,-37.813938,144.963425,Australia,AU,Victoria,admin,,
PARAWA,-37.813938,144.963425,Australia,AU,Victoria,admin,,
TORRENS VALE,-37.813938,144.963425,Australia,AU,Victoria,admin,,
TUNKALILLA,-37.813938,144.963425,Australia,AU,Victoria,admin,,
WATTLE FLAT,-37.813938,144.963425,Australia,AU,Victoria,admin,,
YANKALILLA,-37.813938,144.963425,Australia,AU,Victoria,admin,,
CAPE JERVIS,-37.813938,144.963425,Australia,AU,Victoria,admin,,
CARRICKALINGA,-37.813938,144.963425,Australia,AU,Victoria,admin,,
DEEP CREEK,-37.813938,144.963425,Australia,AU,Victoria,admin,,
DELAMERE,-37.813938,144.963425,Australia,AU,Victoria,admin,,
HAY FLAT,-37.813938,144.963425,Australia,AU,Victoria,admin,,
MOUNT MAGNIFICENT,-37.813938,144.963425,Australia,AU,Victoria,admin,,
NANGKITA,-37.813938,144.963425,Australia,AU,Victoria,admin,,
BACK VALLEY,-37.813938,144.963425,Australia,AU,Victoria,admin,,
CHITON,-37.813938,144.963425,Australia,AU,Victoria,admin,,
ENCOUNTER BAY,-37.813938,144.963425,Australia,AU,Victoria,admin,,
HAYBOROUGH,-37.813938,144.963425,Australia,AU,Victoria,admin,,
HINDMARSH VALLEY,-37.813938,144.963425,Australia,AU,Victoria,admin,,
WAITPINGA,-37.813938,144.963425,Australia,AU,Victoria,admin,,
WILLOW CREEK,-37.813938,144.963425,Australia,AU,Victoria,admin,,
PORT ELLIOT,-37.813938,144.963425,Australia,AU,Victoria,admin,,
MIDDLETON,-37.813938,144.963425,Australia,AU,Victoria,admin,,
INMAN VALLEY,-37.813938,144.963425,Australia,AU,Victoria,admin,,
LOWER INMAN VALLEY,-37.813938,144.963425,Australia,AU,Victoria,admin,,
MCCRACKEN,-37.813938,144.963425,Australia,AU,Victoria,admin,,
MOUNT JAGGED,-37.813938,144.963425,Australia,AU,Victoria,admin,,
VICTOR HARBOR,-37.813938,144.963425,Australia,AU,Victoria,admin,,
NORMANVILLE,-37.813938,144.963425,Australia,AU,Victoria,admin,,
RAPID BAY,-37.813938,144.963425,Australia,AU,Victoria,admin,,
SECOND VALLEY,-37.813938,144.963425,Australia,AU,Victoria,admin,,
SILVERTON,-37.813938,144.963425,Australia,AU,Victoria,admin,,
WIRRINA COVE,-37.813938,144.963425,Australia,AU,Victoria,admin,,
MOUNT COMPASS,-37.813938,144.963425,Australia,AU,Victoria,admin,,
SELLICKS BEACH,-37.813938,144.963425,Australia,AU,Victoria,admin,,
SELLICKS HILL,-37.813938,144.963425,Australia,AU,Victoria,admin,,
BLACKFELLOWS CREEK,-37.813938,144.963425,Australia,AU,Victoria,admin,,
KUITPO,-37.813938,144.963425,Australia,AU,Victoria,admin,,
MEADOWS,-37.813938,144.963425,Australia,AU,Victoria,admin,,
WILLOUGHBY,-37.813938,144.963425,Australia,AU,Victoria,admin,,
WILLSON RIVER,-37.813938,144.963425,Australia,AU,Victoria,admin,,
BAY OF SHOALS,-37.813938,144.963425,Australia,AU,Victoria,admin,,
BIRCHMORE,-37.813938,144.963425,Australia,AU,Victoria,admin,,
BROWNLOW KI,-37.813938,144.963425,Australia,AU,Victoria,admin,,
BALLAST HEAD,-37.813938,144.963425,Australia,AU,Victoria,admin,,
MUSTON,-37.813938,144.963425,Australia,AU,Victoria,admin,,
AMERICAN BEACH,-37.813938,144.963425,Australia,AU,Victoria,admin,,
ANTECHAMBER BAY,-37.813938,144.963425,Australia,AU,Victoria,admin,,
BAUDIN BEACH,-37.813938,144.963425,Australia,AU,Victoria,admin,,
BROWN BEACH,-37.813938,144.963425,Australia,AU,Victoria,admin,,
CURRENCY CREEK,-37.813938,144.963425,Australia,AU,Victoria,admin,,
GOOLWA,-37.813938,144.963425,Australia,AU,Victoria,admin,,
GOOLWA BEACH,-37.813938,144.963425,Australia,AU,Victoria,admin,,
GOOLWA NORTH,-37.813938,144.963425,Australia,AU,Victoria,admin,,
GOOLWA SOUTH,-37.813938,144.963425,Australia,AU,Victoria,admin,,
HINDMARSH ISLAND,-37.813938,144.963425,Australia,AU,Victoria,admin,,
MOSQUITO HILL,-37.813938,144.963425,Australia,AU,Victoria,admin,,
MUNDOO ISLAND,-37.813938,144.963425,Australia,AU,Victoria,admin,,
PARNDANA,-37.813938,144.963425,Australia,AU,Victoria,admin,,
AMERICAN RIVER,-37.813938,144.963425,Australia,AU,Victoria,admin,,
CUTTLEFISH BAY,-37.813938,144.963425,Australia,AU,Victoria,admin,,
DUDLEY EAST,-37.813938,144.963425,Australia,AU,Victoria,admin,,
DUDLEY WEST,-37.813938,144.963425,Australia,AU,Victoria,admin,,
IRONSTONE,-37.813938,144.963425,Australia,AU,Victoria,admin,,
ISLAND BEACH,-37.813938,144.963425,Australia,AU,Victoria,admin,,
KANGAROO HEAD,-37.813938,144.963425,Australia,AU,Victoria,admin,,
PELICAN LAGOON,-37.813938,144.963425,Australia,AU,Victoria,admin,,
PENNESHAW,-37.813938,144.963425,Australia,AU,Victoria,admin,,
PORKY FLAT,-37.813938,144.963425,Australia,AU,Victoria,admin,,
SAPPHIRETOWN,-37.813938,144.963425,Australia,AU,Victoria,admin,,
CAPE BORDA,-37.813938,144.963425,Australia,AU,Victoria,admin,,
CASSINI,-37.813938,144.963425,Australia,AU,Victoria,admin,,
CYGNET RIVER,-37.813938,144.963425,Australia,AU,Victoria,admin,,
D'ESTREES BAY,-37.813938,144.963425,Australia,AU,Victoria,admin,,
DE MOLE RIVER,-37.813938,144.963425,Australia,AU,Victoria,admin,,
KINGSCOTE,-37.813938,144.963425,Australia,AU,Victoria,admin,,
KOHINOOR,-37.813938,144.963425,Australia,AU,Victoria,admin,,
MENZIES,-37.813938,144.963425,Australia,AU,Victoria,admin,,
MIDDLE RIVER,-37.813938,144.963425,Australia,AU,Victoria,admin,,
NEPEAN BAY,-37.813938,144.963425,Australia,AU,Victoria,admin,,
NEWLAND,-37.813938,144.963425,Australia,AU,Victoria,admin,,
NORTH CAPE,-37.813938,144.963425,Australia,AU,Victoria,admin,,
SEAL BAY,-37.813938,144.963425,Australia,AU,Victoria,admin,,
SEDDON,-37.813938,144.963425,Australia,AU,Victoria,admin,,
STOKES BAY,-37.813938,144.963425,Australia,AU,Victoria,admin,,
STUN'SAIL BOOM,-37.813938,144.963425,Australia,AU,Victoria,admin,,
VIVONNE BAY,-37.813938,144.963425,Australia,AU,Victoria,admin,,
WESTERN RIVER,-37.813938,144.963425,Australia,AU,Victoria,admin,,
WISANGER,-37.813938,144.963425,Australia,AU,Victoria,admin,,
CHAIN OF PONDS,-37.813938,144.963425,Australia,AU,Victoria,admin,,
BIRDWOOD,-37.813938,144.963425,Australia,AU,Victoria,admin,,
CROMER,-37.813938,144.963425,Australia,AU,Victoria,admin,,
EDEN VALLEY,-37.813938,144.963425,Australia,AU,Victoria,admin,,
FLAXMAN VALLEY,-37.813938,144.963425,Australia,AU,Victoria,admin,,
PALMER,-37.813938,144.963425,Australia,AU,Victoria,admin,,
SANDERSTON,-37.813938,144.963425,Australia,AU,Victoria,admin,,
ANGAS VALLEY,-37.813938,144.963425,Australia,AU,Victoria,admin,,
BIG BEND,-37.813938,144.963425,Australia,AU,Victoria,admin,,
BOLTO,-37.813938,144.963425,Australia,AU,Victoria,admin,,
BOWHILL,-37.813938,144.963425,Australia,AU,Victoria,admin,,
CAURNAMONT,-37.813938,144.963425,Australia,AU,Victoria,admin,,
CLAYPANS,-37.813938,144.963425,Australia,AU,Victoria,admin,,
COWIRRA,-37.813938,144.963425,Australia,AU,Victoria,admin,,
FIVE MILES,-37.813938,144.963425,Australia,AU,Victoria,admin,,
FORSTER,-37.813938,144.963425,Australia,AU,Victoria,admin,,
MOUNT PLEASANT,-37.813938,144.963425,Australia,AU,Victoria,admin,,
SPRINGTON,-37.813938,144.963425,Australia,AU,Victoria,admin,,
TAUNTON,-37.813938,144.963425,Australia,AU,Victoria,admin,,
TUNGKILLO,-37.813938,144.963425,Australia,AU,Victoria,admin,,
APAMURRA,-37.813938,144.963425,Australia,AU,Victoria,admin,,
MILENDELLA,-37.813938,144.963425,Australia,AU,Victoria,admin,,
KERSBROOK,-37.813938,144.963425,Australia,AU,Victoria,admin,,
MILLBROOK,-37.813938,144.963425,Australia,AU,Victoria,admin,,
CUDLEE CREEK,-37.813938,144.963425,Australia,AU,Victoria,admin,,
FORRESTON,-37.813938,144.963425,Australia,AU,Victoria,admin,,
GUMERACHA,-37.813938,144.963425,Australia,AU,Victoria,admin,,
KENTON VALLEY,-37.813938,144.963425,Australia,AU,Victoria,admin,,
DUNCAN,-37.813938,144.963425,Australia,AU,Victoria,admin,,
EMU BAY,-37.813938,144.963425,Australia,AU,Victoria,admin,,
FLINDERS CHASE,-37.813938,144.963425,Australia,AU,Victoria,admin,,
GOSSE,-37.813938,144.963425,Australia,AU,Victoria,admin,,
HAINES,-37.813938,144.963425,Australia,AU,Victoria,admin,,
KARATTA,-37.813938,144.963425,Australia,AU,Victoria,admin,,
MACGILLIVRAY,-37.813938,144.963425,Australia,AU,Victoria,admin,,
BRUKUNGA,-37.813938,144.963425,Australia,AU,Victoria,admin,,
DAWESLEY,-37.813938,144.963425,Australia,AU,Victoria,admin,,
HAY VALLEY,-37.813938,144.963425,Australia,AU,Victoria,admin,,
KANMANTOO,-37.813938,144.963425,Australia,AU,Victoria,admin,,
NAIRNE,-37.813938,144.963425,Australia,AU,Victoria,admin,,
ST IVES,-37.813938,144.963425,Australia,AU,Victoria,admin,,
AVOCA DELL,-37.813938,144.963425,Australia,AU,Victoria,admin,,
FRAHNS,-37.813938,144.963425,Australia,AU,Victoria,admin,,
LENSWOOD,-37.813938,144.963425,Australia,AU,Victoria,admin,,
LOBETHAL,-37.813938,144.963425,Australia,AU,Victoria,admin,,
BALHANNAH,-37.813938,144.963425,Australia,AU,Victoria,admin,,
OAKBANK,-37.813938,144.963425,Australia,AU,Victoria,admin,,
CHARLESTON,-37.813938,144.963425,Australia,AU,Victoria,admin,,
HARROGATE,-37.813938,144.963425,Australia,AU,Victoria,admin,,
FRAYVILLE,-37.813938,144.963425,Australia,AU,Victoria,admin,,
JULANKA HOLDINGS,-37.813938,144.963425,Australia,AU,Victoria,admin,,
LAKE CARLET,-37.813938,144.963425,Australia,AU,Victoria,admin,,
MANNUM,-37.813938,144.963425,Australia,AU,Victoria,admin,,
NILDOTTIE,-37.813938,144.963425,Australia,AU,Victoria,admin,,
OLD TEAL FLAT,-37.813938,144.963425,Australia,AU,Victoria,admin,,
PELLARING FLAT,-37.813938,144.963425,Australia,AU,Victoria,admin,,
POMPOOTA,-37.813938,144.963425,Australia,AU,Victoria,admin,,
PONDE,-37.813938,144.963425,Australia,AU,Victoria,admin,,
PORT MANNUM,-37.813938,144.963425,Australia,AU,Victoria,admin,,
PUNTHARI,-37.813938,144.963425,Australia,AU,Victoria,admin,,
PURNONG,-37.813938,144.963425,Australia,AU,Victoria,admin,,
ROCKY POINT,-37.813938,144.963425,Australia,AU,Victoria,admin,,
TEAL FLAT,-37.813938,144.963425,Australia,AU,Victoria,admin,,
WALKER FLAT,-37.813938,144.963425,Australia,AU,Victoria,admin,,
WONGULLA,-37.813938,144.963425,Australia,AU,Victoria,admin,,
YOUNGHUSBAND,-37.813938,144.963425,Australia,AU,Victoria,admin,,
YOUNGHUSBAND HOLDINGS,-37.813938,144.963425,Australia,AU,Victoria,admin,,
MOUNT TORRENS,-37.813938,144.963425,Australia,AU,Victoria,admin,,
WOODSIDE,-37.813938,144.963425,Australia,AU,Victoria,admin,,
HAHNDORF,-37.813938,144.963425,Australia,AU,Victoria,admin,,
PAECHTOWN,-37.813938,144.963425,Australia,AU,Victoria,admin,,
VERDUN,-37.813938,144.963425,Australia,AU,Victoria,admin,,
BLAKISTON,-37.813938,144.963425,Australia,AU,Victoria,admin,,
LITTLEHAMPTON,-37.813938,144.963425,Australia,AU,Victoria,admin,,
TOTNESS,-37.813938,144.963425,Australia,AU,Victoria,admin,,
BUGLE RANGES,-37.813938,144.963425,Australia,AU,Victoria,admin,,
MOUNT BARKER,-37.813938,144.963425,Australia,AU,Victoria,admin,,
MOUNT BARKER JUNCTION,-37.813938,144.963425,Australia,AU,Victoria,admin,,
MOUNT BARKER SPRINGS,-37.813938,144.963425,Australia,AU,Victoria,admin,,
MOUNT BARKER SUMMIT,-37.813938,144.963425,Australia,AU,Victoria,admin,,
WISTOW,-37.813938,144.963425,Australia,AU,Victoria,admin,,
BRINKLEY,-37.813938,144.963425,Australia,AU,Victoria,admin,,
BURDETT,-37.813938,144.963425,Australia,AU,Victoria,admin,,
CHAPMAN BORE,-37.813938,144.963425,Australia,AU,Victoria,admin,,
ETTRICK,-37.813938,144.963425,Australia,AU,Victoria,admin,,
GIFFORD HILL,-37.813938,144.963425,Australia,AU,Victoria,admin,,
GREENBANKS,-37.813938,144.963425,Australia,AU,Victoria,admin,,
LONG FLAT,-37.813938,144.963425,Australia,AU,Victoria,admin,,
MOBILONG,-37.813938,144.963425,Australia,AU,Victoria,admin,,
MURRAWONG,-37.813938,144.963425,Australia,AU,Victoria,admin,,
WHITE SANDS,-37.813938,144.963425,Australia,AU,Victoria,admin,,
WILLOW BANKS,-37.813938,144.963425,Australia,AU,Victoria,admin,,
WOODS POINT,-37.813938,144.963425,Australia,AU,Victoria,admin,,
CALLINGTON,-37.813938,144.963425,Australia,AU,Victoria,admin,,
CALOOTE,-37.813938,144.963425,Australia,AU,Victoria,admin,,
MONARTO,-37.813938,144.963425,Australia,AU,Victoria,admin,,
MONARTO SOUTH,-37.813938,144.963425,Australia,AU,Victoria,admin,,
MONTEITH,-37.813938,144.963425,Australia,AU,Victoria,admin,,
MYPOLONGA,-37.813938,144.963425,Australia,AU,Victoria,admin,,
PALLAMANA,-37.813938,144.963425,Australia,AU,Victoria,admin,,
PETWOOD,-37.813938,144.963425,Australia,AU,Victoria,admin,,
ROCKLEIGH,-37.813938,144.963425,Australia,AU,Victoria,admin,,
ROCKY GULLY,-37.813938,144.963425,Australia,AU,Victoria,admin,,
TEPKO,-37.813938,144.963425,Australia,AU,Victoria,admin,,
WALL FLAT,-37.813938,144.963425,Australia,AU,Victoria,admin,,
WHITE HILL,-37.813938,144.963425,Australia,AU,Victoria,admin,,
WOODLANE,-37.813938,144.963425,Australia,AU,Victoria,admin,,
ZADOWS LANDING,-37.813938,144.963425,Australia,AU,Victoria,admin,,
ANGAS PLAINS,-37.813938,144.963425,Australia,AU,Victoria,admin,,
BELVIDERE,-37.813938,144.963425,Australia,AU,Victoria,admin,,
LAKE PLAINS,-37.813938,144.963425,Australia,AU,Victoria,admin,,
LANGHORNE CREEK,-37.813938,144.963425,Australia,AU,Victoria,admin,,
MOUNT OBSERVATION,-37.813938,144.963425,Australia,AU,Victoria,admin,,
MULGUNDAWA,-37.813938,144.963425,Australia,AU,Victoria,admin,,
NALPA,-37.813938,144.963425,Australia,AU,Victoria,admin,,
RED CREEK,-37.813938,144.963425,Australia,AU,Victoria,admin,,
SALEM,-37.813938,144.963425,Australia,AU,Victoria,admin,,
SANDERGROVE,-37.813938,144.963425,Australia,AU,Victoria,admin,,
STRATHALBYN,-37.813938,144.963425,Australia,AU,Victoria,admin,,
TOOPERANG,-37.813938,144.963425,Australia,AU,Victoria,admin,,
POINT STURT,-37.813938,144.963425,Australia,AU,Victoria,admin,,
TOLDEROL,-37.813938,144.963425,Australia,AU,Victoria,admin,,
ASHVILLE,-37.813938,144.963425,Australia,AU,Victoria,admin,,
WILLYAROO,-37.813938,144.963425,Australia,AU,Victoria,admin,,
WOODCHESTER,-37.813938,144.963425,Australia,AU,Victoria,admin,,
CLAYTON BAY,-37.813938,144.963425,Australia,AU,Victoria,admin,,
MILANG,-37.813938,144.963425,Australia,AU,Victoria,admin,,
NURRAGI,-37.813938,144.963425,Australia,AU,Victoria,admin,,
BLETCHLEY,-37.813938,144.963425,Australia,AU,Victoria,admin,,
FINNISS,-37.813938,144.963425,Australia,AU,Victoria,admin,,
GEMMELLS,-37.813938,144.963425,Australia,AU,Victoria,admin,,
HARTLEY,-37.813938,144.963425,Australia,AU,Victoria,admin,,
HIGHLAND VALLEY,-37.813938,144.963425,Australia,AU,Victoria,admin,,
MURRAY BRIDGE,-37.813938,144.963425,Australia,AU,Victoria,admin,,
MURRAY BRIDGE EAST,-37.813938,144.963425,Australia,AU,Victoria,admin,,
MURRAY BRIDGE NORTH,-37.813938,144.963425,Australia,AU,Victoria,admin,,
MURRAY BRIDGE SOUTH,-37.813938,144.963425,Australia,AU,Victoria,admin,,
NORTHERN HEIGHTS,-37.813938,144.963425,Australia,AU,Victoria,admin,,
RIVERGLADES,-37.813938,144.963425,Australia,AU,Victoria,admin,,
RIVERGLEN,-37.813938,144.963425,Australia,AU,Victoria,admin,,
SUNNYSIDE,-37.813938,144.963425,Australia,AU,Victoria,admin,,
SWANPORT,-37.813938,144.963425,Australia,AU,Victoria,admin,,
TOORA,-37.813938,144.963425,Australia,AU,Victoria,admin,,
KEITH,-37.813938,144.963425,Australia,AU,Victoria,admin,,
LAFFER,-37.813938,144.963425,Australia,AU,Victoria,admin,,
MAKIN,-37.813938,144.963425,Australia,AU,Victoria,admin,,
MCCALLUM,-37.813938,144.963425,Australia,AU,Victoria,admin,,
MOUNT CHARLES,-37.813938,144.963425,Australia,AU,Victoria,admin,,
PETHERICK,-37.813938,144.963425,Australia,AU,Victoria,admin,,
SHAUGH,-37.813938,144.963425,Australia,AU,Victoria,admin,,
SHERWOOD,-37.813938,144.963425,Australia,AU,Victoria,admin,,
WILLALOOKA,-37.813938,144.963425,Australia,AU,Victoria,admin,,
WIRREGA,-37.813938,144.963425,Australia,AU,Victoria,admin,,
BANGHAM,-37.813938,144.963425,Australia,AU,Victoria,admin,,
JERVOIS,-37.813938,144.963425,Australia,AU,Victoria,admin,,
BINNUM,-37.813938,144.963425,Australia,AU,Victoria,admin,,
FRANCES,-37.813938,144.963425,Australia,AU,Victoria,admin,,
HYNAM,-37.813938,144.963425,Australia,AU,Victoria,admin,,
KYBYBOLITE,-37.813938,144.963425,Australia,AU,Victoria,admin,,
COONAWARRA,-37.813938,144.963425,Australia,AU,Victoria,admin,,
COORONG,-37.813938,144.963425,Australia,AU,Victoria,admin,,
STRUAN,-37.813938,144.963425,Australia,AU,Victoria,admin,,
THE GAP,-37.813938,144.963425,Australia,AU,Victoria,admin,,
WILD DOG VALLEY,-37.813938,144.963425,Australia,AU,Victoria,admin,,
WRATTONBULLY,-37.813938,144.963425,Australia,AU,Victoria,admin,,
COLES,-37.813938,144.963425,Australia,AU,Victoria,admin,,
KEPA,-37.813938,144.963425,Australia,AU,Victoria,admin,,
LAKE ALBERT,-37.813938,144.963425,Australia,AU,Victoria,admin,,
LAKE ALEXANDRINA,-37.813938,144.963425,Australia,AU,Victoria,admin,,
MALINONG,-37.813938,144.963425,Australia,AU,Victoria,admin,,
NARRUNG,-37.813938,144.963425,Australia,AU,Victoria,admin,,
NATURI,-37.813938,144.963425,Australia,AU,Victoria,admin,,
POLTALLOCH,-37.813938,144.963425,Australia,AU,Victoria,admin,,
WELLINGTON,-37.813938,144.963425,Australia,AU,Victoria,admin,,
WELLINGTON EAST,-37.813938,144.963425,Australia,AU,Victoria,admin,,
ELWOMPLE,-37.813938,144.963425,Australia,AU,Victoria,admin,,
TAILEM BEND,-37.813938,144.963425,Australia,AU,Victoria,admin,,
COOKE PLAINS,-37.813938,144.963425,Australia,AU,Victoria,admin,,
COOMANDOOK,-37.813938,144.963425,Australia,AU,Victoria,admin,,
CULBURRA,-37.813938,144.963425,Australia,AU,Victoria,admin,,
KI KI,-37.813938,144.963425,Australia,AU,Victoria,admin,,
YUMALI,-37.813938,144.963425,Australia,AU,Victoria,admin,,
MENINGIE,-37.813938,144.963425,Australia,AU,Victoria,admin,,
MENINGIE EAST,-37.813938,144.963425,Australia,AU,Victoria,admin,,
MENINGIE WEST,-37.813938,144.963425,Australia,AU,Victoria,admin,,
SALT CREEK,-37.813938,144.963425,Australia,AU,Victoria,admin,,
WALTOWA,-37.813938,144.963425,Australia,AU,Victoria,admin,,
COONALPYN,-37.813938,144.963425,Australia,AU,Victoria,admin,,
FIELD,-37.813938,144.963425,Australia,AU,Victoria,admin,,
BUNBURY,-37.813938,144.963425,Australia,AU,Victoria,admin,,
COLEBATCH,-37.813938,144.963425,Australia,AU,Victoria,admin,,
DEEPWATER,-37.813938,144.963425,Australia,AU,Victoria,admin,,
TINTINARA,-37.813938,144.963425,Australia,AU,Victoria,admin,,
BRIMBAGO,-37.813938,144.963425,Australia,AU,Victoria,admin,,
BORDERTOWN,-37.813938,144.963425,Australia,AU,Victoria,admin,,
BORDERTOWN SOUTH,-37.813938,144.963425,Australia,AU,Victoria,admin,,
CANNAWIGARA,-37.813938,144.963425,Australia,AU,Victoria,admin,,
LOWAN VALE,-37.813938,144.963425,Australia,AU,Victoria,admin,,
POOGINAGORIC,-37.813938,144.963425,Australia,AU,Victoria,admin,,
SENIOR,-37.813938,144.963425,Australia,AU,Victoria,admin,,
WESTERN FLAT,-37.813938,144.963425,Australia,AU,Victoria,admin,,
CUSTON,-37.813938,144.963425,Australia,AU,Victoria,admin,,
PINE HILL,-37.813938,144.963425,Australia,AU,Victoria,admin,,
WOLSELEY,-37.813938,144.963425,Australia,AU,Victoria,admin,,
BUCKINGHAM,-37.813938,144.963425,Australia,AU,Victoria,admin,,
CAREW,-37.813938,144.963425,Australia,AU,Victoria,admin,,
KONGAL,-37.813938,144.963425,Australia,AU,Victoria,admin,,
COOMBE,-37.813938,144.963425,Australia,AU,Victoria,admin,,
MOYHALL,-37.813938,144.963425,Australia,AU,Victoria,admin,,
NARACOORTE,-37.813938,144.963425,Australia,AU,Victoria,admin,,
PADTHAWAY,-37.813938,144.963425,Australia,AU,Victoria,admin,,
SPENCE,-37.813938,144.963425,Australia,AU,Victoria,admin,,
STEWART RANGE,-37.813938,144.963425,Australia,AU,Victoria,admin,,
MONASH,-37.813938,144.963425,Australia,AU,Victoria,admin,,
BERRI,-37.813938,144.963425,Australia,AU,Victoria,admin,,
CONMURRA,-37.813938,144.963425,Australia,AU,Victoria,admin,,
FOX,-37.813938,144.963425,Australia,AU,Victoria,admin,,
GREENWAYS,-37.813938,144.963425,Australia,AU,Victoria,admin,,
LUCINDALE,-37.813938,144.963425,Australia,AU,Victoria,admin,,
MOUNT BENSON,-37.813938,144.963425,Australia,AU,Victoria,admin,,
PINKS BEACH,-37.813938,144.963425,Australia,AU,Victoria,admin,,
REEDY CREEK,-37.813938,144.963425,Australia,AU,Victoria,admin,,
TARATAP,-37.813938,144.963425,Australia,AU,Victoria,admin,,
TILLEY SWAMP,-37.813938,144.963425,Australia,AU,Victoria,admin,,
WANGOLINA,-37.813938,144.963425,Australia,AU,Victoria,admin,,
WEST RANGE,-37.813938,144.963425,Australia,AU,Victoria,admin,,
WYOMI,-37.813938,144.963425,Australia,AU,Victoria,admin,,
BRAY,-37.813938,144.963425,Australia,AU,Victoria,admin,,
NORA CREINA,-37.813938,144.963425,Australia,AU,Victoria,admin,,
ROBE,-37.813938,144.963425,Australia,AU,Victoria,admin,,
COMAUM,-37.813938,144.963425,Australia,AU,Victoria,admin,,
GLENROY,-37.813938,144.963425,Australia,AU,Victoria,admin,,
MAAOUPE,-37.813938,144.963425,Australia,AU,Victoria,admin,,
MONBULLA,-37.813938,144.963425,Australia,AU,Victoria,admin,,
NANGWARRY,-37.813938,144.963425,Australia,AU,Victoria,admin,,
PENOLA,-37.813938,144.963425,Australia,AU,Victoria,admin,,
PLEASANT PARK,-37.813938,144.963425,Australia,AU,Victoria,admin,,
BEACHPORT,-37.813938,144.963425,Australia,AU,Victoria,admin,,
CANUNDA,-37.813938,144.963425,Australia,AU,Victoria,admin,,
CLAY WELLS,-37.813938,144.963425,Australia,AU,Victoria,admin,,
FURNER,-37.813938,144.963425,Australia,AU,Victoria,admin,,
GERMAN FLAT,-37.813938,144.963425,Australia,AU,Victoria,admin,,
HATHERLEIGH,-37.813938,144.963425,Australia,AU,Victoria,admin,,
KANGAROO INN,-37.813938,144.963425,Australia,AU,Victoria,admin,,
MAGAREY,-37.813938,144.963425,Australia,AU,Victoria,admin,,
MILLICENT,-37.813938,144.963425,Australia,AU,Victoria,admin,,
RENDELSHAM,-37.813938,144.963425,Australia,AU,Victoria,admin,,
TARPEENA,-37.813938,144.963425,Australia,AU,Victoria,admin,,
KALANGADOO,-37.813938,144.963425,Australia,AU,Victoria,admin,,
KRONGART,-37.813938,144.963425,Australia,AU,Victoria,admin,,
MOERLONG,-37.813938,144.963425,Australia,AU,Victoria,admin,,
WEPAR,-37.813938,144.963425,Australia,AU,Victoria,admin,,
KOORINE,-37.813938,144.963425,Australia,AU,Victoria,admin,,
MOUNT BURR,-37.813938,144.963425,Australia,AU,Victoria,admin,,
MOUNT MCINTYRE,-37.813938,144.963425,Australia,AU,Victoria,admin,,
SHORT,-37.813938,144.963425,Australia,AU,Victoria,admin,,
WATTLE RANGE EAST,-37.813938,144.963425,Australia,AU,Victoria,admin,,
WOOLUMBOOL,-37.813938,144.963425,Australia,AU,Victoria,admin,,
AVENUE RANGE,-37.813938,144.963425,Australia,AU,Victoria,admin,,
BLACKFORD,-37.813938,144.963425,Australia,AU,Victoria,admin,,
BOATSWAIN POINT,-37.813938,144.963425,Australia,AU,Victoria,admin,,
CAPE JAFFA,-37.813938,144.963425,Australia,AU,Victoria,admin,,
KEILIRA,-37.813938,144.963425,Australia,AU,Victoria,admin,,
KINGSTON SE,-37.813938,144.963425,Australia,AU,Victoria,admin,,
ROSETOWN,-37.813938,144.963425,Australia,AU,Victoria,admin,,
SANDY GROVE,-37.813938,144.963425,Australia,AU,Victoria,admin,,
MUNDULLA,-37.813938,144.963425,Australia,AU,Victoria,admin,,
MUNDULLA WEST,-37.813938,144.963425,Australia,AU,Victoria,admin,,
SWEDE FLAT,-37.813938,144.963425,Australia,AU,Victoria,admin,,
BOOL LAGOON,-37.813938,144.963425,Australia,AU,Victoria,admin,,
CADGEE,-37.813938,144.963425,Australia,AU,Victoria,admin,,
JOANNA,-37.813938,144.963425,Australia,AU,Victoria,admin,,
KEPPOCH,-37.813938,144.963425,Australia,AU,Victoria,admin,,
KOPPAMURRA,-37.813938,144.963425,Australia,AU,Victoria,admin,,
LAURIE PARK,-37.813938,144.963425,Australia,AU,Victoria,admin,,
LOCHABER,-37.813938,144.963425,Australia,AU,Victoria,admin,,
MARCOLLAT,-37.813938,144.963425,Australia,AU,Victoria,admin,,
MOUNT LIGHT,-37.813938,144.963425,Australia,AU,Victoria,admin,,
WANDEARAH EAST,-37.813938,144.963425,Australia,AU,Victoria,admin,,
WANDEARAH WEST,-37.813938,144.963425,Australia,AU,Victoria,admin,,
BUNGAMA,-37.813938,144.963425,Australia,AU,Victoria,admin,,
COONAMIA,-37.813938,144.963425,Australia,AU,Victoria,admin,,
LOWER BROUGHTON,-37.813938,144.963425,Australia,AU,Victoria,admin,,
NAPPERBY,-37.813938,144.963425,Australia,AU,Victoria,admin,,
NELSHABY,-37.813938,144.963425,Australia,AU,Victoria,admin,,
PIRIE EAST,-37.813938,144.963425,Australia,AU,Victoria,admin,,
NEW TOWN,-37.813938,144.963425,Australia,AU,Victoria,admin,,
THOMAS PLAIN,-37.813938,144.963425,Australia,AU,Victoria,admin,,
WALLAROO MINES,-37.813938,144.963425,Australia,AU,Victoria,admin,,
WILLAMULKA,-37.813938,144.963425,Australia,AU,Victoria,admin,,
ALFORD,-37.813938,144.963425,Australia,AU,Victoria,admin,,
COLLINSFIELD,-37.813938,144.963425,Australia,AU,Victoria,admin,,
HOPE GAP,-37.813938,144.963425,Australia,AU,Victoria,admin,,
LAKE VIEW,-37.813938,144.963425,Australia,AU,Victoria,admin,,
DUCK PONDS,-37.813938,144.963425,Australia,AU,Victoria,admin,,
FARM BEACH,-37.813938,144.963425,Australia,AU,Victoria,admin,,
FOUNTAIN,-37.813938,144.963425,Australia,AU,Victoria,admin,,
GREEN PATCH,-37.813938,144.963425,Australia,AU,Victoria,admin,,
HAWSON,-37.813938,144.963425,Australia,AU,Victoria,admin,,
KELLIDIE BAY,-37.813938,144.963425,Australia,AU,Victoria,admin,,
WHITES RIVER,-37.813938,144.963425,Australia,AU,Victoria,admin,,
YALLUNDA FLAT,-37.813938,144.963425,Australia,AU,Victoria,admin,,
MULLAQUANA,-37.813938,144.963425,Australia,AU,Victoria,admin,,
WHYALLA NORRIE,-37.813938,144.963425,Australia,AU,Victoria,admin,,
WHYALLA STUART,-37.813938,144.963425,Australia,AU,Victoria,admin,,
PORT RICKABY,-37.813938,144.963425,Australia,AU,Victoria,admin,,
RAMSAY,-37.813938,144.963425,Australia,AU,Victoria,admin,,
WHITE HUT,-37.813938,144.963425,Australia,AU,Victoria,admin,,
WOOL BAY,-37.813938,144.963425,Australia,AU,Victoria,admin,,
HONITON,-37.813938,144.963425,Australia,AU,Victoria,admin,,
PORT MOOROWIE,-37.813938,144.963425,Australia,AU,Victoria,admin,,
PANITYA,-37.813938,144.963425,Australia,AU,Victoria,admin,,
FALSE BAY,-37.813938,144.963425,Australia,AU,Victoria,admin,,
FITZGERALD BAY,-37.813938,144.963425,Australia,AU,Victoria,admin,,
POINT LOWLY,-37.813938,144.963425,Australia,AU,Victoria,admin,,
POINT LOWLY NORTH,-37.813938,144.963425,Australia,AU,Victoria,admin,,
PORT BONYTHON,-37.813938,144.963425,Australia,AU,Victoria,admin,,
WHYALLA BARSON,-37.813938,144.963425,Australia,AU,Victoria,admin,,
KIANA,-37.813938,144.963425,Australia,AU,Victoria,admin,,
KOPPIO,-37.813938,144.963425,Australia,AU,Victoria,admin,,
LINCOLN NATIONAL PARK,-37.813938,144.963425,Australia,AU,Victoria,admin,,
LIPSON,-37.813938,144.963425,Australia,AU,Victoria,admin,,
LITTLE DOUGLAS,-37.813938,144.963425,Australia,AU,Victoria,admin,,
LOUTH BAY,-37.813938,144.963425,Australia,AU,Victoria,admin,,
MOODY,-37.813938,144.963425,Australia,AU,Victoria,admin,,
MOUNT DRUMMOND,-37.813938,144.963425,Australia,AU,Victoria,admin,,
MOUNT HOPE,-37.813938,144.963425,Australia,AU,Victoria,admin,,
PERLUBIE,-37.813938,144.963425,Australia,AU,Victoria,admin,,
PETINA,-37.813938,144.963425,Australia,AU,Victoria,admin,,
PIEDNIPPIE,-37.813938,144.963425,Australia,AU,Victoria,admin,,
THEVENARD,-37.813938,144.963425,Australia,AU,Victoria,admin,,
UWORRA,-37.813938,144.963425,Australia,AU,Victoria,admin,,
WANDANA,-37.813938,144.963425,Australia,AU,Victoria,admin,,
WATRABA,-37.813938,144.963425,Australia,AU,Victoria,admin,,
WHITE WELL CORNER,-37.813938,144.963425,Australia,AU,Victoria,admin,,
YALATA,-37.813938,144.963425,Australia,AU,Victoria,admin,,
YELLABINNA,-37.813938,144.963425,Australia,AU,Victoria,admin,,
YUMBARRA,-37.813938,144.963425,Australia,AU,Victoria,admin,,
BLANCHE HARBOR,-37.813938,144.963425,Australia,AU,Victoria,admin,,
PINKAWILLINIE,-37.813938,144.963425,Australia,AU,Victoria,admin,,
SOLOMON,-37.813938,144.963425,Australia,AU,Victoria,admin,,
WILCHERRY,-37.813938,144.963425,Australia,AU,Victoria,admin,,
YALANDA,-37.813938,144.963425,Australia,AU,Victoria,admin,,
YELTANA,-37.813938,144.963425,Australia,AU,Victoria,admin,,
DARKE PEAK,-37.813938,144.963425,Australia,AU,Victoria,admin,,
HAMBIDGE,-37.813938,144.963425,Australia,AU,Victoria,admin,,
KIELPA,-37.813938,144.963425,Australia,AU,Victoria,admin,,
MURLONG,-37.813938,144.963425,Australia,AU,Victoria,admin,,
RUDALL,-37.813938,144.963425,Australia,AU,Victoria,admin,,
COOTRA,-37.813938,144.963425,Australia,AU,Victoria,admin,,
LAKE TORRENS,-37.813938,144.963425,Australia,AU,Victoria,admin,,
PERNATTY,-37.813938,144.963425,Australia,AU,Victoria,admin,,
SOUTH GAP,-37.813938,144.963425,Australia,AU,Victoria,admin,,
COOLILLIE,-37.813938,144.963425,Australia,AU,Victoria,admin,,
ELLISTON,-37.813938,144.963425,Australia,AU,Victoria,admin,,
KAPPAWANTA,-37.813938,144.963425,Australia,AU,Victoria,admin,,
MOUNT JOY,-37.813938,144.963425,Australia,AU,Victoria,admin,,
MOUNT WEDGE,-37.813938,144.963425,Australia,AU,Victoria,admin,,
PALKAGEE,-37.813938,144.963425,Australia,AU,Victoria,admin,,
POLDA,-37.813938,144.963425,Australia,AU,Victoria,admin,,
ROCKY CAMP,-37.813938,144.963425,Australia,AU,Victoria,admin,,
PINJARRA STATION,-37.813938,144.963425,Australia,AU,Victoria,admin,,
PUNTABIE,-37.813938,144.963425,Australia,AU,Victoria,admin,,
PUREBA,-37.813938,144.963425,Australia,AU,Victoria,admin,,
SCEALE BAY,-37.813938,144.963425,Australia,AU,Victoria,admin,,
SMOKY BAY,-37.813938,144.963425,Australia,AU,Victoria,admin,,
STREAKY BAY,-37.813938,144.963425,Australia,AU,Victoria,admin,,
CEDUNA,-37.813938,144.963425,Australia,AU,Victoria,admin,,
CHARRA,-37.813938,144.963425,Australia,AU,Victoria,admin,,
CHUNDARIA,-37.813938,144.963425,Australia,AU,Victoria,admin,,
COORABIE,-37.813938,144.963425,Australia,AU,Victoria,admin,,
GLADSTONE,-37.813938,144.963425,Australia,AU,Victoria,admin,,
APPILA,-37.813938,144.963425,Australia,AU,Victoria,admin,,
BAROOTA,-37.813938,144.963425,Australia,AU,Victoria,admin,,
GERMEIN BAY,-37.813938,144.963425,Australia,AU,Victoria,admin,,
MAMBRAY CREEK,-37.813938,144.963425,Australia,AU,Victoria,admin,,
LAKE TORRENS STATION,-37.813938,144.963425,Australia,AU,Victoria,admin,,
MOUNT ARDEN,-37.813938,144.963425,Australia,AU,Victoria,admin,,
OAKDEN HILLS,-37.813938,144.963425,Australia,AU,Victoria,admin,,
WALLERBERDINA,-37.813938,144.963425,Australia,AU,Victoria,admin,,
BUMBUNGA,-37.813938,144.963425,Australia,AU,Victoria,admin,,
SEBASTOPOL,-37.813938,144.963425,Australia,AU,Victoria,admin,,
SOUTHEND,-37.813938,144.963425,Australia,AU,Victoria,admin,,
TANTANOOLA,-37.813938,144.963425,Australia,AU,Victoria,admin,,
THORNLEA,-37.813938,144.963425,Australia,AU,Victoria,admin,,
WATTLE RANGE,-37.813938,144.963425,Australia,AU,Victoria,admin,,
LAURA,-37.813938,144.963425,Australia,AU,Victoria,admin,,
STONE HUT,-37.813938,144.963425,Australia,AU,Victoria,admin,,
BANGOR,-37.813938,144.963425,Australia,AU,Victoria,admin,,
MURRAY TOWN,-37.813938,144.963425,Australia,AU,Victoria,admin,,
MUNDOORA,-37.813938,144.963425,Australia,AU,Victoria,admin,,
TICKERA,-37.813938,144.963425,Australia,AU,Victoria,admin,,
SANDILANDS,-37.813938,144.963425,Australia,AU,Victoria,admin,,
TIDDY WIDDY BEACH,-37.813938,144.963425,Australia,AU,Victoria,admin,,
ARTHURTON,-37.813938,144.963425,Australia,AU,Victoria,admin,,
BALGOWAN,-37.813938,144.963425,Australia,AU,Victoria,admin,,
CHINAMAN WELLS,-37.813938,144.963425,Australia,AU,Victoria,admin,,
MAITLAND,-37.813938,144.963425,Australia,AU,Victoria,admin,,
POINT PEARCE,-37.813938,144.963425,Australia,AU,Victoria,admin,,
PORT VICTORIA,-37.813938,144.963425,Australia,AU,Victoria,admin,,
BURNSFIELD,-37.813938,144.963425,Australia,AU,Victoria,admin,,
SNOWTOWN,-37.813938,144.963425,Australia,AU,Victoria,admin,,
WOKURNA,-37.813938,144.963425,Australia,AU,Victoria,admin,,
REDHILL,-37.813938,144.963425,Australia,AU,Victoria,admin,,
YORKETOWN,-37.813938,144.963425,Australia,AU,Victoria,admin,,
COUCH BEACH,-37.813938,144.963425,Australia,AU,Victoria,admin,,
FOUL BAY,-37.813938,144.963425,Australia,AU,Victoria,admin,,
INNESTON,-37.813938,144.963425,Australia,AU,Victoria,admin,,
KYANCUTTA,-37.813938,144.963425,Australia,AU,Victoria,admin,,
PORT DAVIS,-37.813938,144.963425,Australia,AU,Victoria,admin,,
PORT PIRIE,-37.813938,144.963425,Australia,AU,Victoria,admin,,
PORT PIRIE SOUTH,-37.813938,144.963425,Australia,AU,Victoria,admin,,
PORT PIRIE WEST,-37.813938,144.963425,Australia,AU,Victoria,admin,,
RISDON PARK,-37.813938,144.963425,Australia,AU,Victoria,admin,,
RISDON PARK SOUTH,-37.813938,144.963425,Australia,AU,Victoria,admin,,
SOLOMONTOWN,-37.813938,144.963425,Australia,AU,Victoria,admin,,
NORTH BEACH,-37.813938,144.963425,Australia,AU,Victoria,admin,,
WALLAROO,-37.813938,144.963425,Australia,AU,Victoria,admin,,
WELBOURN HILL,-37.813938,144.963425,Australia,AU,Victoria,admin,,
OLYMPIC DAM,-37.813938,144.963425,Australia,AU,Victoria,admin,,
ROXBY DOWNS,-37.813938,144.963425,Australia,AU,Victoria,admin,,
ROXBY DOWNS STATION,-37.813938,144.963425,Australia,AU,Victoria,admin,,
ALPANA,-37.813938,144.963425,Australia,AU,Victoria,admin,,
COWLEDS LANDING,-37.813938,144.963425,Australia,AU,Victoria,admin,,
MIDDLEBACK RANGE,-37.813938,144.963425,Australia,AU,Victoria,admin,,
MURNINNIE BEACH,-37.813938,144.963425,Australia,AU,Victoria,admin,,
WHYALLA JENKINS,-37.813938,144.963425,Australia,AU,Victoria,admin,,
COOYERDOO,-37.813938,144.963425,Australia,AU,Victoria,admin,,
CORUNNA STATION,-37.813938,144.963425,Australia,AU,Victoria,admin,,
GILLES DOWNS,-37.813938,144.963425,Australia,AU,Victoria,admin,,
IRON BARON,-37.813938,144.963425,Australia,AU,Victoria,admin,,
IRON KNOB,-37.813938,144.963425,Australia,AU,Victoria,admin,,
POINT SOUTTAR,-37.813938,144.963425,Australia,AU,Victoria,admin,,
THE PINES,-37.813938,144.963425,Australia,AU,Victoria,admin,,
WAROOKA,-37.813938,144.963425,Australia,AU,Victoria,admin,,
CURRAMULKA,-37.813938,144.963425,Australia,AU,Victoria,admin,,
KOONGAWA,-37.813938,144.963425,Australia,AU,Victoria,admin,,
WARRAMBOO,-37.813938,144.963425,Australia,AU,Victoria,admin,,
COWELL,-37.813938,144.963425,Australia,AU,Victoria,admin,,
LUCKY BAY,-37.813938,144.963425,Australia,AU,Victoria,admin,,
MANGALO,-37.813938,144.963425,Australia,AU,Victoria,admin,,
MIDGEE,-37.813938,144.963425,Australia,AU,Victoria,admin,,
MILTALIE,-37.813938,144.963425,Australia,AU,Victoria,admin,,
MINBRIE,-37.813938,144.963425,Australia,AU,Victoria,admin,,
ANGORIGINA,-37.813938,144.963425,Australia,AU,Victoria,admin,,
BELTANA,-37.813938,144.963425,Australia,AU,Victoria,admin,,
BELTANA STATION,-37.813938,144.963425,Australia,AU,Victoria,admin,,
BLINMAN,-37.813938,144.963425,Australia,AU,Victoria,admin,,
EDIACARA,-37.813938,144.963425,Australia,AU,Victoria,admin,,
GUM CREEK STATION,-37.813938,144.963425,Australia,AU,Victoria,admin,,
KATUNGA STATION,-37.813938,144.963425,Australia,AU,Victoria,admin,,
COMMISSARIAT POINT,-37.813938,144.963425,Australia,AU,Victoria,admin,,
CULTANA,-37.813938,144.963425,Australia,AU,Victoria,admin,,
DAVENPORT,-37.813938,144.963425,Australia,AU,Victoria,admin,,
MIRANDA,-37.813938,144.963425,Australia,AU,Victoria,admin,,
PYGERY,-37.813938,144.963425,Australia,AU,Victoria,admin,,
WUDINNA,-37.813938,144.963425,Australia,AU,Victoria,admin,,
YANINEE,-37.813938,144.963425,Australia,AU,Victoria,admin,,
COCATA,-37.813938,144.963425,Australia,AU,Victoria,admin,,
KARCULTABY,-37.813938,144.963425,Australia,AU,Victoria,admin,,
TALIA,-37.813938,144.963425,Australia,AU,Victoria,admin,,
BAIRD BAY,-37.813938,144.963425,Australia,AU,Victoria,admin,,
CALCA,-37.813938,144.963425,Australia,AU,Victoria,admin,,
WIRRABARA,-37.813938,144.963425,Australia,AU,Victoria,admin,,
WONGYARRA,-37.813938,144.963425,Australia,AU,Victoria,admin,,
BOOLEROO CENTRE,-37.813938,144.963425,Australia,AU,Victoria,admin,,
MELROSE,-37.813938,144.963425,Australia,AU,Victoria,admin,,
KOOROONA,-37.813938,144.963425,Australia,AU,Victoria,admin,,
MOONTA,-37.813938,144.963425,Australia,AU,Victoria,admin,,
MUNDALLIO,-37.813938,144.963425,Australia,AU,Victoria,admin,,
NECTAR BROOK,-37.813938,144.963425,Australia,AU,Victoria,admin,,
PORT GERMEIN,-37.813938,144.963425,Australia,AU,Victoria,admin,,
WEEROONA ISLAND,-37.813938,144.963425,Australia,AU,Victoria,admin,,
AVON,-37.813938,144.963425,Australia,AU,Victoria,admin,,
CALOMBA,-37.813938,144.963425,Australia,AU,Victoria,admin,,
DUBLIN,-37.813938,144.963425,Australia,AU,Victoria,admin,,
LEWISTON,-37.813938,144.963425,Australia,AU,Victoria,admin,,
LONG PLAINS,-37.813938,144.963425,Australia,AU,Victoria,admin,,
LOWER LIGHT,-37.813938,144.963425,Australia,AU,Victoria,admin,,
MIDDLE BEACH,-37.813938,144.963425,Australia,AU,Victoria,admin,,
PORT GAWLER,-37.813938,144.963425,Australia,AU,Victoria,admin,,
TWO WELLS,-37.813938,144.963425,Australia,AU,Victoria,admin,,
KOKATHA,-37.813938,144.963425,Australia,AU,Victoria,admin,,
KOLENDO,-37.813938,144.963425,Australia,AU,Victoria,admin,,
KONDOOLKA,-37.813938,144.963425,Australia,AU,Victoria,admin,,
MOUNT GAMBIER,-37.813938,144.963425,Australia,AU,Victoria,admin,,
ALLENDALE EAST,-37.813938,144.963425,Australia,AU,Victoria,admin,,
BLACKFELLOWS CAVES,-37.813938,144.963425,Australia,AU,Victoria,admin,,
BURRUNGULE,-37.813938,144.963425,Australia,AU,Victoria,admin,,
CAPE DOUGLAS,-37.813938,144.963425,Australia,AU,Victoria,admin,,
CAROLINE,-37.813938,144.963425,Australia,AU,Victoria,admin,,
TELOWIE,-37.813938,144.963425,Australia,AU,Victoria,admin,,
MOONTA BAY,-37.813938,144.963425,Australia,AU,Victoria,admin,,
MOONTA MINES,-37.813938,144.963425,Australia,AU,Victoria,admin,,
NALYAPPA,-37.813938,144.963425,Australia,AU,Victoria,admin,,
NORTH MOONTA,-37.813938,144.963425,Australia,AU,Victoria,admin,,
WEBB BEACH,-37.813938,144.963425,Australia,AU,Victoria,admin,,
SOUTH KILKERRAN,-37.813938,144.963425,Australia,AU,Victoria,admin,,
URANIA,-37.813938,144.963425,Australia,AU,Victoria,admin,,
WAURALTEE,-37.813938,144.963425,Australia,AU,Victoria,admin,,
WEETULTA,-37.813938,144.963425,Australia,AU,Victoria,admin,,
YORKE VALLEY,-37.813938,144.963425,Australia,AU,Victoria,admin,,
BLUFF BEACH,-37.813938,144.963425,Australia,AU,Victoria,admin,,
BRENTWOOD,-37.813938,144.963425,Australia,AU,Victoria,admin,,
CORNY POINT,-37.813938,144.963425,Australia,AU,Victoria,admin,,
LAKE GILLES,-37.813938,144.963425,Australia,AU,Victoria,admin,,
MYOLA STATION,-37.813938,144.963425,Australia,AU,Victoria,admin,,
SECRET ROCKS,-37.813938,144.963425,Australia,AU,Victoria,admin,,
FISHERMAN BAY,-37.813938,144.963425,Australia,AU,Victoria,admin,,
PORT BROUGHTON,-37.813938,144.963425,Australia,AU,Victoria,admin,,
WARD HILL,-37.813938,144.963425,Australia,AU,Victoria,admin,,
NARRIDY,-37.813938,144.963425,Australia,AU,Victoria,admin,,
NUROM,-37.813938,144.963425,Australia,AU,Victoria,admin,,
WARNERTOWN,-37.813938,144.963425,Australia,AU,Victoria,admin,,
BEAUFORT,-37.813938,144.963425,Australia,AU,Victoria,admin,,
BOWMANS,-37.813938,144.963425,Australia,AU,Victoria,admin,,
INKERMAN,-37.813938,144.963425,Australia,AU,Victoria,admin,,
KALLORA,-37.813938,144.963425,Australia,AU,Victoria,admin,,
NANTAWARRA,-37.813938,144.963425,Australia,AU,Victoria,admin,,
PORT WAKEFIELD,-37.813938,144.963425,Australia,AU,Victoria,admin,,
PROOF RANGE,-37.813938,144.963425,Australia,AU,Victoria,admin,,
POINT BOSTON,-37.813938,144.963425,Australia,AU,Victoria,admin,,
POONINDIE,-37.813938,144.963425,Australia,AU,Victoria,admin,,
SHERINGA,-37.813938,144.963425,Australia,AU,Victoria,admin,,
SLEAFORD,-37.813938,144.963425,Australia,AU,Victoria,admin,,
TIATUKIA,-37.813938,144.963425,Australia,AU,Victoria,admin,,
TOOLIGIE,-37.813938,144.963425,Australia,AU,Victoria,admin,,
TOOTENILLA,-37.813938,144.963425,Australia,AU,Victoria,admin,,
EDILLILIE,-37.813938,144.963425,Australia,AU,Victoria,admin,,
COCKALEECHIE,-37.813938,144.963425,Australia,AU,Victoria,admin,,
CUMMINS,-37.813938,144.963425,Australia,AU,Victoria,admin,,
KAPINNIE,-37.813938,144.963425,Australia,AU,Victoria,admin,,
KARKOO,-37.813938,144.963425,Australia,AU,Victoria,admin,,
MITCHELL,-37.813938,144.963425,Australia,AU,Victoria,admin,,
YEELANNA,-37.813938,144.963425,Australia,AU,Victoria,admin,,
BOONERDO,-37.813938,144.963425,Australia,AU,Victoria,admin,,
LOCK,-37.813938,144.963425,Australia,AU,Victoria,admin,,
ULYERRA,-37.813938,144.963425,Australia,AU,Victoria,admin,,
PORT JULIA,-37.813938,144.963425,Australia,AU,Victoria,admin,,
PORT VINCENT,-37.813938,144.963425,Australia,AU,Victoria,admin,,
SHEAOAK FLAT,-37.813938,144.963425,Australia,AU,Victoria,admin,,
STANSBURY,-37.813938,144.963425,Australia,AU,Victoria,admin,,
COOBOWIE,-37.813938,144.963425,Australia,AU,Victoria,admin,,
EDITHBURGH,-37.813938,144.963425,Australia,AU,Victoria,admin,,
MITCHELLVILLE,-37.813938,144.963425,Australia,AU,Victoria,admin,,
PORT GIBBON,-37.813938,144.963425,Australia,AU,Victoria,admin,,
ARNO BAY,-37.813938,144.963425,Australia,AU,Victoria,admin,,
BOOKABIE,-37.813938,144.963425,Australia,AU,Victoria,admin,,
CEDUNA WATERS,-37.813938,144.963425,Australia,AU,Victoria,admin,,
FOWLERS BAY,-37.813938,144.963425,Australia,AU,Victoria,admin,,
KALANBI,-37.813938,144.963425,Australia,AU,Victoria,admin,,
KOONIBBA,-37.813938,144.963425,Australia,AU,Victoria,admin,,
MALTEE,-37.813938,144.963425,Australia,AU,Victoria,admin,,
YALYMBOO,-37.813938,144.963425,Australia,AU,Victoria,admin,,
YUDNAPINNA,-37.813938,144.963425,Australia,AU,Victoria,admin,,
HILTABA,-37.813938,144.963425,Australia,AU,Victoria,admin,,
MINNIPA,-37.813938,144.963425,Australia,AU,Victoria,admin,,
MOUNT DAMPER,-37.813938,144.963425,Australia,AU,Victoria,admin,,
BOCKELBERG,-37.813938,144.963425,Australia,AU,Victoria,admin,,
GAWLER RANGES,-37.813938,144.963425,Australia,AU,Victoria,admin,,
KALDOONERA,-37.813938,144.963425,Australia,AU,Victoria,admin,,
LOCKES CLAYPAN,-37.813938,144.963425,Australia,AU,Victoria,admin,,
NARLABY,-37.813938,144.963425,Australia,AU,Victoria,admin,,
POOCHERA,-37.813938,144.963425,Australia,AU,Victoria,admin,,
CHILPENUNDA,-37.813938,144.963425,Australia,AU,Victoria,admin,,
CUNGENA,-37.813938,144.963425,Australia,AU,Victoria,admin,,
COLLEY,-37.813938,144.963425,Australia,AU,Victoria,admin,,
MORTANA,-37.813938,144.963425,Australia,AU,Victoria,admin,,
MOUNT COOPER,-37.813938,144.963425,Australia,AU,Victoria,admin,,
PORT KENNY,-37.813938,144.963425,Australia,AU,Victoria,admin,,
TYRINGA,-37.813938,144.963425,Australia,AU,Victoria,admin,,
WITERA,-37.813938,144.963425,Australia,AU,Victoria,admin,,
CARAWA,-37.813938,144.963425,Australia,AU,Victoria,admin,,
CHANDADA,-37.813938,144.963425,Australia,AU,Victoria,admin,,
CHINBINGINA,-37.813938,144.963425,Australia,AU,Victoria,admin,,
WILMINGTON,-37.813938,144.963425,Australia,AU,Victoria,admin,,
CALTOWIE,-37.813938,144.963425,Australia,AU,Victoria,admin,,
CALTOWIE NORTH,-37.813938,144.963425,Australia,AU,Victoria,admin,,
CALTOWIE WEST,-37.813938,144.963425,Australia,AU,Victoria,admin,,
BELALIE EAST,-37.813938,144.963425,Australia,AU,Victoria,admin,,
PARHAM,-37.813938,144.963425,Australia,AU,Victoria,admin,,
THOMPSON BEACH,-37.813938,144.963425,Australia,AU,Victoria,admin,,
WILD HORSE PLAINS,-37.813938,144.963425,Australia,AU,Victoria,admin,,
WINDSOR,-37.813938,144.963425,Australia,AU,Victoria,admin,,
KOOLGERA,-37.813938,144.963425,Australia,AU,Victoria,admin,,
WINNINOWIE,-37.813938,144.963425,Australia,AU,Victoria,admin,,
ARKAROOLA VILLAGE,-37.813938,144.963425,Australia,AU,Victoria,admin,,
TARCOOLA,-37.813938,144.963425,Australia,AU,Victoria,admin,,
WOOLUNDUNGA,-37.813938,144.963425,Australia,AU,Victoria,admin,,
STIRLING NORTH,-37.813938,144.963425,Australia,AU,Victoria,admin,,
EMEROO,-37.813938,144.963425,Australia,AU,Victoria,admin,,
ISLAND LAGOON,-37.813938,144.963425,Australia,AU,Victoria,admin,,
CARPENTER ROCKS,-37.813938,144.963425,Australia,AU,Victoria,admin,,
CAVETON,-37.813938,144.963425,Australia,AU,Victoria,admin,,
COMPTON,-37.813938,144.963425,Australia,AU,Victoria,admin,,
DISMAL SWAMP,-37.813938,144.963425,Australia,AU,Victoria,admin,,
DONOVANS,-37.813938,144.963425,Australia,AU,Victoria,admin,,
CONDOWIE,-37.813938,144.963425,Australia,AU,Victoria,admin,,
HART,-37.813938,144.963425,Australia,AU,Victoria,admin,,
KOOLUNGA,-37.813938,144.963425,Australia,AU,Victoria,admin,,
BELALIE NORTH,-37.813938,144.963425,Australia,AU,Victoria,admin,,
NORTH YELTA,-37.813938,144.963425,Australia,AU,Victoria,admin,,
PARAMATTA,-37.813938,144.963425,Australia,AU,Victoria,admin,,
PORT HUGHES,-37.813938,144.963425,Australia,AU,Victoria,admin,,
YELTA,-37.813938,144.963425,Australia,AU,Victoria,admin,,
BUTE,-37.813938,144.963425,Australia,AU,Victoria,admin,,
NINNES,-37.813938,144.963425,Australia,AU,Victoria,admin,,
CLINTON,-37.813938,144.963425,Australia,AU,Victoria,admin,,
CLINTON CENTRE,-37.813938,144.963425,Australia,AU,Victoria,admin,,
PRICE,-37.813938,144.963425,Australia,AU,Victoria,admin,,
HARDWICKE BAY,-37.813938,144.963425,Australia,AU,Victoria,admin,,
KOOLYWURTIE,-37.813938,144.963425,Australia,AU,Victoria,admin,,
MARION BAY,-37.813938,144.963425,Australia,AU,Victoria,admin,,
MINLATON,-37.813938,144.963425,Australia,AU,Victoria,admin,,
PARSONS BEACH,-37.813938,144.963425,Australia,AU,Victoria,admin,,
POINT TURTON,-37.813938,144.963425,Australia,AU,Victoria,admin,,
CAMPOONA,-37.813938,144.963425,Australia,AU,Victoria,admin,,
KOOTABERRA,-37.813938,144.963425,Australia,AU,Victoria,admin,,
BEETALOO VALLEY,-37.813938,144.963425,Australia,AU,Victoria,admin,,
CLEMENTS GAP,-37.813938,144.963425,Australia,AU,Victoria,admin,,
CRYSTAL BROOK,-37.813938,144.963425,Australia,AU,Victoria,admin,,
HUDDLESTON,-37.813938,144.963425,Australia,AU,Victoria,admin,,
SOUTH HUMMOCKS,-37.813938,144.963425,Australia,AU,Victoria,admin,,
KAINTON,-37.813938,144.963425,Australia,AU,Victoria,admin,,
KULPARA,-37.813938,144.963425,Australia,AU,Victoria,admin,,
MELTON,-37.813938,144.963425,Australia,AU,Victoria,admin,,
PASKEVILLE,-37.813938,144.963425,Australia,AU,Victoria,admin,,
PORT ARTHUR,-37.813938,144.963425,Australia,AU,Victoria,admin,,
SUNNYVALE,-37.813938,144.963425,Australia,AU,Victoria,admin,,
THRINGTON,-37.813938,144.963425,Australia,AU,Victoria,admin,,
BOORS PLAIN,-37.813938,144.963425,Australia,AU,Victoria,admin,,
CUNLIFFE,-37.813938,144.963425,Australia,AU,Victoria,admin,,
JERICHO,-37.813938,144.963425,Australia,AU,Victoria,admin,,
JERUSALEM,-37.813938,144.963425,Australia,AU,Victoria,admin,,
WINULTA,-37.813938,144.963425,Australia,AU,Victoria,admin,,
TULKA,-37.813938,144.963425,Australia,AU,Victoria,admin,,
ULEY,-37.813938,144.963425,Australia,AU,Victoria,admin,,
UNGARRA,-37.813938,144.963425,Australia,AU,Victoria,admin,,
VENUS BAY,-37.813938,144.963425,Australia,AU,Victoria,admin,,
WANGARY,-37.813938,144.963425,Australia,AU,Victoria,admin,,
WANILLA,-37.813938,144.963425,Australia,AU,Victoria,admin,,
CLEVE,-37.813938,144.963425,Australia,AU,Victoria,admin,,
JAMIESON,-37.813938,144.963425,Australia,AU,Victoria,admin,,
WADDIKEE,-37.813938,144.963425,Australia,AU,Victoria,admin,,
BARNA,-37.813938,144.963425,Australia,AU,Victoria,admin,,
BUCKLEBOO,-37.813938,144.963425,Australia,AU,Victoria,admin,,
BUNGEROO,-37.813938,144.963425,Australia,AU,Victoria,admin,,
CARALUE,-37.813938,144.963425,Australia,AU,Victoria,admin,,
CORTLINYE,-37.813938,144.963425,Australia,AU,Victoria,admin,,
CUNYARIE,-37.813938,144.963425,Australia,AU,Victoria,admin,,
KELLY,-37.813938,144.963425,Australia,AU,Victoria,admin,,
KIMBA,-37.813938,144.963425,Australia,AU,Victoria,admin,,
MOSELEY,-37.813938,144.963425,Australia,AU,Victoria,admin,,
MERRITON,-37.813938,144.963425,Australia,AU,Victoria,admin,,
SULTANA POINT,-37.813938,144.963425,Australia,AU,Victoria,admin,,
WHYALLA,-37.813938,144.963425,Australia,AU,Victoria,admin,,
WHYALLA PLAYFORD,-37.813938,144.963425,Australia,AU,Victoria,admin,,
BACKY POINT,-37.813938,144.963425,Australia,AU,Victoria,admin,,
DOUGLAS POINT,-37.813938,144.963425,Australia,AU,Victoria,admin,,
DOUGLAS POINT SOUTH,-37.813938,144.963425,Australia,AU,Victoria,admin,,
PIMBAACLA,-37.813938,144.963425,Australia,AU,Victoria,admin,,
HINCKS,-37.813938,144.963425,Australia,AU,Victoria,admin,,
VERRAN,-37.813938,144.963425,Australia,AU,Victoria,admin,,
WHARMINDA,-37.813938,144.963425,Australia,AU,Victoria,admin,,
PORT NEILL,-37.813938,144.963425,Australia,AU,Victoria,admin,,
BUTLER,-37.813938,144.963425,Australia,AU,Victoria,admin,,
TUMBY BAY,-37.813938,144.963425,Australia,AU,Victoria,admin,,
PORT LINCOLN,-37.813938,144.963425,Australia,AU,Victoria,admin,,
WEDGE ISLAND,-37.813938,144.963425,Australia,AU,Victoria,admin,,
BOSTON,-37.813938,144.963425,Australia,AU,Victoria,admin,,
BROOKER,-37.813938,144.963425,Australia,AU,Victoria,admin,,
CHARLTON GULLY,-37.813938,144.963425,Australia,AU,Victoria,admin,,
COFFIN BAY,-37.813938,144.963425,Australia,AU,Victoria,admin,,
COOMUNGA,-37.813938,144.963425,Australia,AU,Victoria,admin,,
COULTA,-37.813938,144.963425,Australia,AU,Victoria,admin,,
WHITES FLAT,-37.813938,144.963425,Australia,AU,Victoria,admin,,
DENIAL BAY,-37.813938,144.963425,Australia,AU,Victoria,admin,,
MERGHINY,-37.813938,144.963425,Australia,AU,Victoria,admin,,
MITCHIDY MOOLA,-37.813938,144.963425,Australia,AU,Victoria,admin,,
NADIA,-37.813938,144.963425,Australia,AU,Victoria,admin,,
NANBONA,-37.813938,144.963425,Australia,AU,Victoria,admin,,
NULLARBOR,-37.813938,144.963425,Australia,AU,Victoria,admin,,
OAK VALLEY,-37.813938,144.963425,Australia,AU,Victoria,admin,,
PORT AUGUSTA,-37.813938,144.963425,Australia,AU,Victoria,admin,,
PORT AUGUSTA WEST,-37.813938,144.963425,Australia,AU,Victoria,admin,,
PORT PATERSON,-37.813938,144.963425,Australia,AU,Victoria,admin,,
WAMI KATA,-37.813938,144.963425,Australia,AU,Victoria,admin,,
FISCHER,-37.813938,144.963425,Australia,AU,Victoria,admin,,
WALLALA,-37.813938,144.963425,Australia,AU,Victoria,admin,,
WIRRULLA,-37.813938,144.963425,Australia,AU,Victoria,admin,,
YANTANABIE,-37.813938,144.963425,Australia,AU,Victoria,admin,,
BRAMFIELD,-37.813938,144.963425,Australia,AU,Victoria,admin,,
COLTON,-37.813938,144.963425,Australia,AU,Victoria,admin,,
EBA ANCHORAGE,-37.813938,144.963425,Australia,AU,Victoria,admin,,
HASLAM,-37.813938,144.963425,Australia,AU,Victoria,admin,,
INKSTER,-37.813938,144.963425,Australia,AU,Victoria,admin,,
LAURA BAY,-37.813938,144.963425,Australia,AU,Victoria,admin,,
MARYVALE,-37.813938,144.963425,Australia,AU,Victoria,admin,,
MUDAMUCKLA,-37.813938,144.963425,Australia,AU,Victoria,admin,,
NUNJIKOMPITA,-37.813938,144.963425,Australia,AU,Victoria,admin,,
MAROLA,-37.813938,144.963425,Australia,AU,Victoria,admin,,
PENONG,-37.813938,144.963425,Australia,AU,Victoria,admin,,
BUNDALEER GARDENS,-37.813938,144.963425,Australia,AU,Victoria,admin,,
BUNDALEER NORTH,-37.813938,144.963425,Australia,AU,Victoria,admin,,
HORNSDALE,-37.813938,144.963425,Australia,AU,Victoria,admin,,
JAMESTOWN,-37.813938,144.963425,Australia,AU,Victoria,admin,,
WEST BUNDALEER,-37.813938,144.963425,Australia,AU,Victoria,admin,,
YONGALA,-37.813938,144.963425,Australia,AU,Victoria,admin,,
GRACE PLAINS,-37.813938,144.963425,Australia,AU,Victoria,admin,,
KORUNYE,-37.813938,144.963425,Australia,AU,Victoria,admin,,
MALLALA,-37.813938,144.963425,Australia,AU,Victoria,admin,,
REDBANKS,-37.813938,144.963425,Australia,AU,Victoria,admin,,
REEVES PLAINS,-37.813938,144.963425,Australia,AU,Victoria,admin,,
LOCHIEL,-37.813938,144.963425,Australia,AU,Victoria,admin,,
BARUNGA GAP,-37.813938,144.963425,Australia,AU,Victoria,admin,,
WILKATANA STATION,-37.813938,144.963425,Australia,AU,Victoria,admin,,
WINTABATINYANA,-37.813938,144.963425,Australia,AU,Victoria,admin,,
YADLAMALKA,-37.813938,144.963425,Australia,AU,Victoria,admin,,
CARRIEWERLOO,-37.813938,144.963425,Australia,AU,Victoria,admin,,
ILLEROO,-37.813938,144.963425,Australia,AU,Victoria,admin,,
LINCOLN GAP,-37.813938,144.963425,Australia,AU,Victoria,admin,,
PANDURRA,-37.813938,144.963425,Australia,AU,Victoria,admin,,
WARTAKA,-37.813938,144.963425,Australia,AU,Victoria,admin,,
ROCHESTER,-37.813938,144.963425,Australia,AU,Victoria,admin,,
YACKA,-37.813938,144.963425,Australia,AU,Victoria,admin,,
GULNARE,-37.813938,144.963425,Australia,AU,Victoria,admin,,
GEORGETOWN,-37.813938,144.963425,Australia,AU,Victoria,admin,,
KADINA,-37.813938,144.963425,Australia,AU,Victoria,admin,,
MATTA FLAT,-37.813938,144.963425,Australia,AU,Victoria,admin,,
ARDROSSAN,-37.813938,144.963425,Australia,AU,Victoria,admin,,
BLACK POINT,-37.813938,144.963425,Australia,AU,Victoria,admin,,
CUNNINGHAM,-37.813938,144.963425,Australia,AU,Victoria,admin,,
DOWLINGVILLE,-37.813938,144.963425,Australia,AU,Victoria,admin,,
JAMES WELL,-37.813938,144.963425,Australia,AU,Victoria,admin,,
PETERSVILLE,-37.813938,144.963425,Australia,AU,Victoria,admin,,
PINE POINT,-37.813938,144.963425,Australia,AU,Victoria,admin,,
ROGUES POINT,-37.813938,144.963425,Australia,AU,Victoria,admin,,
BOOKPURNONG,-37.813938,144.963425,Australia,AU,Victoria,admin,,
LOXTON,-37.813938,144.963425,Australia,AU,Victoria,admin,,
LOXTON NORTH,-37.813938,144.963425,Australia,AU,Victoria,admin,,
NEW RESIDENCE,-37.813938,144.963425,Australia,AU,Victoria,admin,,
PATA,-37.813938,144.963425,Australia,AU,Victoria,admin,,
RENMARK,-37.813938,144.963425,Australia,AU,Victoria,admin,,
RENMARK NORTH,-37.813938,144.963425,Australia,AU,Victoria,admin,,
RENMARK SOUTH,-37.813938,144.963425,Australia,AU,Victoria,admin,,
RENMARK WEST,-37.813938,144.963425,Australia,AU,Victoria,admin,,
SUTHERLANDS,-37.813938,144.963425,Australia,AU,Victoria,admin,,
CURNAMONA,-37.813938,144.963425,Australia,AU,Victoria,admin,,
DEVONBOROUGH DOWNS,-37.813938,144.963425,Australia,AU,Victoria,admin,,
ERUDINA,-37.813938,144.963425,Australia,AU,Victoria,admin,,
FLORINA STATION,-37.813938,144.963425,Australia,AU,Victoria,admin,,
FROME DOWNS,-37.813938,144.963425,Australia,AU,Victoria,admin,,
GRAMPUS,-37.813938,144.963425,Australia,AU,Victoria,admin,,
KALABITY,-37.813938,144.963425,Australia,AU,Victoria,admin,,
KALKAROO,-37.813938,144.963425,Australia,AU,Victoria,admin,,
KOONAMORE,-37.813938,144.963425,Australia,AU,Victoria,admin,,
LAKE FROME,-37.813938,144.963425,Australia,AU,Victoria,admin,,
MANNA HILL,-37.813938,144.963425,Australia,AU,Victoria,admin,,
MANUNDA STATION,-37.813938,144.963425,Australia,AU,Victoria,admin,,
MARTINS WELL,-37.813938,144.963425,Australia,AU,Victoria,admin,,
ALAWOONA,-37.813938,144.963425,Australia,AU,Victoria,admin,,
PINE VALLEY STATION,-37.813938,144.963425,Australia,AU,Victoria,admin,,
QUONDONG,-37.813938,144.963425,Australia,AU,Victoria,admin,,
STURT VALE,-37.813938,144.963425,Australia,AU,Victoria,admin,,
EMU FLAT,-37.813938,144.963425,Australia,AU,Victoria,admin,,
GILLENTOWN,-37.813938,144.963425,Australia,AU,Victoria,admin,,
HILL RIVER,-37.813938,144.963425,Australia,AU,Victoria,admin,,
HOYLETON,-37.813938,144.963425,Australia,AU,Victoria,admin,,
